"legal_name","addr_street","addr_housenumber","addr_postcode","municipality","geometry","health_facility_type","opening_hours","longitude","latitude"
NA,NA,NA,NA,NA,"POINT (11.069013549331999 46.24834958206941)","doctors",NA,11.069013549332,46.2483495820694
NA,"Via Rauti","12",38030,"Roveré Della Luna","POINT (11.1715578365758 46.248458882086766)","pharmacy","Mo-Fr 09:00-12:00",11.1715578365758,46.2484588820868
NA,NA,NA,NA,NA,"POINT (11.171177298171727 46.24905366193596)","doctors",NA,11.1711772981717,46.249053661936
"Ospedale Riabilitativo Villa Rosa",NA,NA,NA,NA,"POLYGON ((11.248087127120954 46.06432028784815, 11.248663969697361 46.06432238332394, 11.248662880049949 46.06446847989625, 11.248341350244203 46.06446722261077, 11.24834017677776 46.064623796562046, 11.248919031010928 46.06462589203784, 11.24944667181569 46.064627736056536, 11.249446420358595 46.06466117985022, 11.249446252720531 46.064690767968415, 11.249311387898473 46.064690265054224, 11.249308538051395 46.06506108045062, 11.24963593518936 46.06506217009803, 11.24963543227517 46.0651309855231, 11.249983281256846 46.06513224280857, 11.24998696929427 46.06463578268361, 11.249722017334932 46.06445473357505, 11.249566868307198 46.06445473357505, 11.249563683183993 46.06434534973863, 11.249280793951897 46.0641453575289, 11.24905213563332 46.06414443551955, 11.24905163271913 46.06420503667951, 11.248829093189869 46.064204282308225, 11.248830434294376 46.0640090677833, 11.248089557872873 46.06400638557429, 11.248087127120954 46.06432028784815), (11.249162944393277 46.06434107496801, 11.249235783131837 46.06434082351092, 11.249340892197637 46.06443352736002, 11.2493410598357 46.064454565936984, 11.249163698764562 46.064455068851174, 11.249162944393277 46.06434107496801), (11.248821633296046 46.06434132642511, 11.24898901990241 46.06434132642511, 11.24898901990241 46.06445473357505, 11.248821633296046 46.06445473357505, 11.248821633296046 46.06434132642511))","hospital",NA,NA,NA
"Farmacia Romanese",NA,NA,NA,NA,"POINT (11.302147971838195 46.01143249048002)","pharmacy","Mo-Sa 08:30-12:30,15:00-19:00",11.3021479718382,46.01143249048
NA,NA,NA,NA,NA,"POINT (11.299755944310533 46.01211645377899)","pharmacy",NA,11.2997559443105,46.012116453779
"Ambulatorio Tenuti Dottor Alessandro","Via Antonio Pranzelores","51",38121,"Trento","POINT (11.119925899760176 46.08974008560247)","doctors",NA,11.1199258997602,46.0897400856025
"Centro Di Fisioterapia Kinesi","Via Antonio Pranzelores","9",38121,"Trento","POINT (11.11985423448806 46.089850223810174)","doctors",NA,11.1198542344881,46.0898502238102
"Zanini","Piazza San Gottardo","13",38016,"Mezzocorona","POINT (11.11887397091192 46.2146885294768)","pharmacy","Mo-Fr 08:30-12:15,15:30-19:15;Sa 08:30-12:15",11.1188739709119,46.2146885294768
"Farmacia Comunale Castelnuovo","Viale Venezia","15A",38050,"Castelnuovo","POINT (11.49261574116315 46.052273648969106)","pharmacy",NA,11.4926157411631,46.0522736489691
"Ambulitario Medico",NA,NA,NA,NA,"POINT (11.494308634147103 46.05259853153612)","doctors",NA,11.4943086341471,46.0525985315361
NA,NA,NA,NA,NA,"POINT (10.692774391030213 46.29885608074591)","pharmacy",NA,10.6927743910302,46.2988560807459
NA,NA,NA,NA,NA,"POINT (10.842665786187354 45.88650164860235)","pharmacy",NA,10.8426657861874,45.8865016486023
"Accorsi",NA,NA,38066,NA,"POINT (10.840970546270512 45.88522449801579)","pharmacy",NA,10.8409705462705,45.8852244980158
"Studio Dentistico Associato","Via Degli Orti","15/4",38122,"Trento","POINT (11.122095723034704 46.06559986918663)","dentist",NA,11.1220957230347,46.0655998691866
"Farmacia - Omeopatia",NA,NA,NA,NA,"POINT (11.260312216718546 45.995081241407206)","pharmacy",NA,11.2603122167185,45.9950812414072
"Farmacia All'Angelo","Via Guglielmo Marconi","10",38010,"Denno","POINT (11.047974134176172 46.274440267353725)","pharmacy",NA,11.0479741341762,46.2744402673537
"Farmacia Comunale","Via Brescia","19/A",38122,"Trento","POINT (11.11230892907028 46.07057234942528)","pharmacy","Mo-Fr 08:30-19:00; Sa 08:30-12:00",11.1123089290703,46.0705723494253
"Ospedale Santa Maria Del Carmine","Corso Verona","4",38068,"Rovereto","POLYGON ((11.039565241274431 45.880902621101455, 11.039695663687809 45.88108962136127, 11.039762048360956 45.88118492360036, 11.040129259538986 45.88171826409928, 11.040897796240955 45.882857448559605, 11.041388053757572 45.88350251982783, 11.041240448442693 45.88354937466656, 11.041385623005652 45.88373377653639, 11.04243377999751 45.88342171828123, 11.042968126324809 45.88324377047687, 11.04303719320697 45.88304587374293, 11.043946964977408 45.88282819571751, 11.043808831213113 45.88257648716521, 11.043305246470453 45.8824322346116, 11.042980363903439 45.882194859113724, 11.042549869356463 45.88164349752296, 11.04173757911991 45.881154329653754, 11.040793693003536 45.88088803658994, 11.040478868720356 45.88038813988467, 11.039869252902548 45.8806763935348, 11.039931195166986 45.880766750451016, 11.039565241274431 45.880902621101455), (11.041606318516216 45.88220332483593, 11.04196104065852 45.882087319296005, 11.042127421436504 45.88233408252543, 11.041772783113231 45.88244992042729, 11.041606318516216 45.88220332483593))","hospital",NA,NA,NA
"Guardia Medica",NA,NA,NA,NA,"POINT (10.600321747569268 45.89010905209017)","doctors",NA,10.6003217475693,45.8901090520902
NA,"Passaggio Vittorio Zippel","4",38122,"Trento","POINT (11.123167516993504 46.067695344979995)","doctors",NA,11.1231675169935,46.06769534498
"Ambulatorio Medico",NA,"2",NA,NA,"POINT (11.199473262181016 46.00530632508858)","doctors",NA,11.199473262181,46.0053063250886
NA,NA,NA,NA,NA,"POINT (11.121190896587137 46.214087295562194)","dentist",NA,11.1211908965871,46.2140872955622
"Farmacia Comunale",NA,NA,NA,NA,"POINT (11.008295545657262 45.88477631765309)","pharmacy",NA,11.0082955456573,45.8847763176531
"Ospedale San Lorenzo",NA,NA,NA,NA,"POLYGON ((11.462601235546202 46.05689224525577, 11.462602828107805 46.05695846229085, 11.4626788519696 46.056970867507545, 11.46265789721167 46.057096596055146, 11.462838946320204 46.05712794437301, 11.462838946320204 46.05716381891861, 11.462843891643075 46.057236825295234, 11.462863253839402 46.057290637113624, 11.462900469489512 46.05732215306955, 11.462982863597688 46.05734562239843, 11.463610416688311 46.057396165274554, 11.463757519089 46.057521893822184, 11.4639403283972 46.05756229459547, 11.46397108998184 46.0574971672078, 11.46415063034783 46.05748484581014, 11.464152222909433 46.05751175171932, 11.464212069698078 46.05751518829962, 11.464223385267388 46.0575364783337, 11.464813722707873 46.05756112112903, 11.46488647762743 46.0569955941219, 11.465195350759387 46.057023589678494, 11.465302136205821 46.05700565240571, 11.465366844498305 46.056572391830684, 11.465330299400478 46.056569961078765, 11.465289982446194 46.056563171737196, 11.464506442137548 46.05651388614652, 11.464415163211982 46.05652603990612, 11.464362441041033 46.056535679094765, 11.464312149621975 46.056522938601944, 11.46425959508909 46.05652603990612, 11.46422983933283 46.05653727165637, 11.464106373899085 46.05653408653316, 11.463258879669212 46.05649485922632, 11.463216551058167 46.05647373683033, 11.46311789605781 46.05646057724235, 11.463013038449134 46.0564562186527, 11.462927962131914 46.05644548981664, 11.462854285203008 46.05643233022866, 11.462810531668453 46.056425121791904, 11.462779183350591 46.05641305185134, 11.462759318240046 46.05648153200028, 11.462718666009664 46.05692568904945, 11.46262705180797 46.056891155608355, 11.462601235546202 46.05689224525577), (11.46414032060693 46.05729105620878, 11.464149037786228 46.057227018468524, 11.464170495458347 46.05722844339206, 11.464178625904424 46.05716784223213, 11.464160018079383 46.05716666876569, 11.46417016018222 46.05709274037969, 11.464190863483054 46.057094081484195, 11.464199664481384 46.05701797380337, 11.464215087183248 46.05701797380337, 11.464213326983582 46.05700188054928, 11.4642126564313 46.05699165462741, 11.464216763563883 46.05698193161973, 11.464225145467054 46.05697354971656, 11.464236963950526 46.05696759856531, 11.464250961728823 46.056964581080166, 11.464265546240341 46.05696483253726, 11.464279292561542 46.056968436755625, 11.464290524311792 46.05697489082107, 11.464301588423979 46.05697438790688, 11.464407284223 46.05697883031556, 11.464408625327508 46.05696868821272, 11.464491019435712 46.05697405263075, 11.464489259236046 46.05698763131389, 11.464592021368958 46.056994336836425, 11.464593781568624 46.05698243453392, 11.464684222303845 46.056988469504205, 11.46468254592321 46.05700095853993, 11.464788576998359 46.057007999338595, 11.464781117104536 46.057061894976016, 11.464824619182025 46.05706466100406, 11.46481213014627 46.057156778119946, 11.464749433510548 46.057152670987364, 11.464747924767977 46.05716415419474, 11.46445967111785 46.05714512727451, 11.46445623453755 46.05716977006986, 11.464404266737859 46.05716633348956, 11.464374846257726 46.057382586591416, 11.464149456881387 46.057367834441834, 11.464159682803256 46.05729239731329, 11.46414032060693 46.05729105620878), (11.463153351508254 46.05683122500068, 11.463191992081875 46.05655453837693, 11.463641681187141 46.05658479704738, 11.464037893750145 46.056611451499464, 11.46401903446801 46.05684756971186, 11.464017441906407 46.05686944647914, 11.463857431374834 46.056863830604016, 11.463869082220242 46.05671262107077, 11.463783838264959 46.056706921376616, 11.463774450533407 46.05677389278296, 11.463722650371778 46.056770456202656, 11.463720471076954 46.056786465637714, 11.46371787268697 46.056804654367625, 11.463766236268299 46.05680792330986, 11.463751232661622 46.05691529548952, 11.463379327617815 46.056890233599006, 11.46337513666623 46.05691998935529, 11.463324342332982 46.05691655277499, 11.463167684562677 46.056906075396, 11.463172126971358 46.05687372124976, 11.463177826665515 46.056832985200344, 11.463163577430123 46.056831979371964, 11.463153351508254 46.05683122500068), (11.464470819049069 46.056832985200344, 11.464479871504494 46.05674832797828, 11.46448506828446 46.05670013203505, 11.46457006078262 46.05670457444373, 11.464574587010333 46.05666199437559, 11.465090157874556 46.05668839737061, 11.465087978579731 46.056708849214345, 11.46524287615037 46.05671689584139, 11.465235751532674 46.05678344815257, 11.465139024370046 46.05677858664873, 11.465131061562033 46.0568542752344, 11.465220077373743 46.056858885281144, 11.465212282203794 46.05693214311489, 11.465016061850491 46.05692216865012, 11.465018827878538 46.05689526274091, 11.464973397963348 46.05689299962705, 11.464532174580285 46.05687028466946, 11.464535778798648 46.05683625414258, 11.464470819049069 46.056832985200344), (11.462902481146273 46.05727462767854, 11.462917065657791 46.05712945311558, 11.463585690073927 46.05716189108088, 11.463650985099662 46.057165076204086, 11.46364402812003 46.05723422690525, 11.463611087240565 46.05723263434365, 11.4636078182983 46.05726398266151, 11.463512851335366 46.057259372614766, 11.463511174954732 46.05727538204982, 11.463486029245189 46.05727412476435, 11.46348167065554 46.057318045936995, 11.463407155536345 46.05731444171863, 11.46340447332733 46.05734067707556, 11.463122673742618 46.05732693075436, 11.463126780875172 46.05728544033366, 11.462902481146273 46.05727462767854), (11.463071795590366 46.05702618806848, 11.463166427277201 46.05696558690855, 11.463813929297345 46.05701663269886, 11.463883750550792 46.05708645395231, 11.463792723082321 46.05714621692192, 11.463145137243146 46.05709517113161, 11.463071795590366 46.05702618806848))","hospital",NA,NA,NA
"Farmacia Vinante",NA,NA,NA,NA,"POLYGON ((11.689510837660578 46.4302116514061, 11.68958434695142 46.43035012044652, 11.689790541769497 46.430298152646856, 11.689717032478654 46.43015968360643, 11.689670261458957 46.430171418270874, 11.689510837660578 46.4302116514061))","pharmacy",NA,NA,NA
"Ospedale Di Fiemme",NA,NA,NA,NA,"POLYGON ((11.454475986247871 46.28836026159203, 11.454630129447224 46.28837099042809, 11.454599535500648 46.28858196293098, 11.454805730318725 46.2885962959854, 11.45480003062454 46.288635271835176, 11.455036316475002 46.28865161654636, 11.455486340856396 46.28868279722616, 11.45551735389813 46.288468471962005, 11.455687338894506 46.28848029044548, 11.455668647250434 46.28860953939241, 11.455861682480503 46.288622950437485, 11.455905855110245 46.28831759770489, 11.455418698897802 46.28828381863511, 11.455423560401641 46.28824995574627, 11.455487849598967 46.28825448197398, 11.455512324756228 46.28808583808214, 11.455282828247334 46.288069996285145, 11.455259358918454 46.288232353749606, 11.455311745813304 46.28823595796797, 11.455307471042687 46.288265546086166, 11.454497779196117 46.28820955497298, 11.454475986247871 46.28836026159203))","hospital",NA,NA,NA
"Farmacia Rigoni","Via Brennero","15",38060,"Calliano","POLYGON ((11.092736849884005 45.92942093234524, 11.092884874294043 45.92942244108781, 11.092894345844627 45.92917718660095, 11.09274347158751 45.92917659986773, 11.092736849884005 45.92942093234524))","pharmacy",NA,NA,NA
"Farmacia Turazza",NA,NA,NA,NA,"POLYGON ((11.001669651198597 46.079823958872055, 11.001750452745199 46.07994138933552, 11.001898980069427 46.0798921875639, 11.001879450235037 46.07986385673118, 11.001982882920174 46.07982965856621, 11.001921443569927 46.079740475116466, 11.001669651198597 46.079823958872055))","pharmacy",NA,NA,NA
NA,NA,NA,NA,NA,"POLYGON ((11.771138923725204 46.47595613943264, 11.771243948971971 46.47603132510412, 11.771384094393028 46.47593853743598, 11.77127906914626 46.47586343558356, 11.771138923725204 46.47595613943264))","clinic",NA,NA,NA
NA,NA,NA,NA,NA,"POINT (11.008486233954443 45.88472594241503)","doctors",NA,11.0084862339544,45.884725942415
"Ospedale Valli Del Noce","Via Alcide Degasperi","31",38023,"Cles","POLYGON ((11.031613245914684 46.36076255447162, 11.031762862886325 46.361063548614595, 11.031968554790211 46.36145733042568, 11.032027144293409 46.36155573396894, 11.032140719081383 46.361717169424054, 11.032245325232992 46.36185647665482, 11.032466188381619 46.36210189877974, 11.032704150612716 46.36208974502014, 11.032708928297524 46.362143556838504, 11.032815127010736 46.36212679303216, 11.032831639359983 46.362075579603754, 11.033216955448864 46.362014978443824, 11.033200526918648 46.3620661918722, 11.033461287926372 46.362022857432805, 11.033447876881297 46.36198337866887, 11.033545945148433 46.36201028457805, 11.033768987591884 46.36197357184216, 11.0338044430423 46.361924537708575, 11.03382103921058 46.360941340466326, 11.033716852154157 46.35994347489353, 11.033761360059998 46.35963543995189, 11.033148726757048 46.35957928120064, 11.032341381843366 46.3597847216474, 11.032026557560187 46.35984976521604, 11.032136779586892 46.360699271102675, 11.031613245914684 46.36076255447162))","hospital",NA,NA,NA
"Centro Di Riabilitazione Villa San Pietro",NA,NA,NA,NA,"POLYGON ((10.88975012143618 45.91545064668787, 10.88988557299146 45.91573697250027, 10.890165360919383 45.91567293476004, 10.890194865218575 45.9157354637577, 10.890647571808955 45.91563186343447, 10.89066886184304 45.9156767904355, 10.890847480199653 45.91563588674799, 10.890770199052383 45.91547235581709, 10.89078872305842 45.91546808104647, 10.890717476881434 45.91531737442742, 10.890454117483728 45.91537764031122, 10.890425786651008 45.91531754206548, 10.890277091688688 45.91535157259236, 10.890267955414231 45.915332126577, 10.890041644028543 45.9153839267386, 10.88975012143618 45.91545064668787))","hospital",NA,NA,NA
"Farmacia Di Gardolo","Via Soprasasso","32/4",38121,"Gardolo","POINT (11.108619969664602 46.106399956350145)","pharmacy","Mo 15:00-19:00; Tu-Sa 09:00-12:00,15:00-19:00",11.1086199696646,46.1063999563501
"Ambulatorio Medico",NA,NA,NA,NA,"POINT (11.509526482272804 46.069377257670794)","doctors",NA,11.5095264822728,46.0693772576708
"Distretto Di Fassa",NA,NA,NA,NA,"POLYGON ((11.678406240879212 46.423293982897974, 11.678477235599104 46.423306723390795, 11.678464662744346 46.42333966427026, 11.678570358543368 46.42335885882852, 11.678582344664903 46.4233273428726, 11.678641520901294 46.42333815552769, 11.678730033798814 46.42310647972397, 11.678494250862542 46.42306364819876, 11.678406240879212 46.423293982897974))","doctors",NA,NA,NA
"Distretto Sanitario Centro Sud","Via San Giovanni Bosco","6",38068,"Rovereto","POLYGON ((11.040962420714436 45.89229069384817, 11.041086472881403 45.89230946931127, 11.041104242516127 45.89225264000774, 11.041129723501768 45.8922564956832, 11.041150594440666 45.89218994337202, 11.041130394054022 45.892186842067844, 11.0411712977415 45.892055916740276, 11.041286381272073 45.89207335109887, 11.041327033502483 45.891942928685495, 11.041186133710113 45.89192163865144, 11.04117574015018 45.89195499862606, 11.041054537830291 45.891936558439085, 11.041043557537137 45.891971762432405, 11.041079348263708 45.891977126850435, 11.041077085149851 45.89198433528716, 11.041048921955166 45.89207427310822, 11.041029643577872 45.89207133944211, 11.04101933383697 45.89210436414061, 11.041039953318773 45.89210746544478, 11.041005755153833 45.89221701691926, 11.04099921726936 45.892237720220095, 11.040979855073033 45.89223487037302, 11.040962420714436 45.89229069384817))","doctors",NA,NA,NA
"Farmacia Comunale","Via Giacomo Matteotti","66",38015,"Lavis","POINT (11.111994272425136 46.139538397279836)","pharmacy",NA,11.1119942724251,46.1395383972798
"Farmacia Campagnolo","Via Alle Sette Fontane","14",38123,"Romagnano","POINT (11.105582787049656 46.01675801648037)","pharmacy",NA,11.1055827870497,46.0167580164804
"Ambulatorio Medico",NA,NA,NA,NA,"POINT (11.521720139733503 46.06618475839005)","doctors",NA,11.5217201397335,46.0661847583901
"Farmacia Borsato","Via Roma","29",38059,"Castel Ivano","POINT (11.523985349066152 46.06375802978326)","pharmacy",NA,11.5239853490662,46.0637580297833
"Studio Ortodontico Dr. Marco Rosa","Piazza Della Mostra","19",38122,"Trento","POINT (11.1257146935489 46.07133635989953)","dentist",NA,11.1257146935489,46.0713363598995
"Ambulatori - Centro Della Salute",NA,NA,NA,NA,"POLYGON ((11.266292034080607 45.993262368418556, 11.266466126209508 45.99332104174076, 11.266498061260592 45.99327519273041, 11.266572995474974 45.993300422258955, 11.26662898658816 45.99322012362654, 11.266683552777835 45.99314192046995, 11.266434526434551 45.99305818525724, 11.266292034080607 45.993262368418556))","clinic",NA,NA,NA
"Apss Banca Del Sangue",NA,NA,NA,NA,"POLYGON ((11.126901654857306 46.06172508298755, 11.127174234348502 46.061807058000596, 11.127390990364574 46.06182985677722, 11.127417225721501 46.06171368359924, 11.127177419471707 46.0616863585949, 11.126947671505718 46.06162483542562, 11.126901654857306 46.06172508298755))","hospital",NA,NA,NA
NA,NA,NA,NA,NA,"POINT (10.535263342974162 45.829668489410466)","doctors",NA,10.5352633429742,45.8296684894105
NA,NA,NA,NA,NA,"POLYGON ((10.724099993941564 46.04126435442683, 10.724459829044804 46.041279777128665, 10.724531829593047 46.04156601912203, 10.724717237291259 46.04156023560884, 10.724706256998104 46.04136233887493, 10.724628640574707 46.04125085956272, 10.724656384674205 46.04093192814696, 10.72478378960244 46.04078775941238, 10.724598298085226 46.04070704168481, 10.724459829044804 46.04084928258166, 10.724429318917231 46.04108942410758, 10.724124888193984 46.04106838553062, 10.724099993941564 46.04126435442683))","hospital",NA,NA,NA
NA,NA,NA,NA,NA,"POLYGON ((10.724080547926206 46.041627877567464, 10.72409437806644 46.04173835105129, 10.724153386664767 46.04173726140388, 10.72422253736596 46.04183574876615, 10.724156655607004 46.04185603297185, 10.72429143661003 46.042031298567196, 10.724335860696868 46.04200992471411, 10.724552365255818 46.04216993524568, 10.72470022202782 46.04204856528773, 10.724506180969342 46.04192099272143, 10.724381625888185 46.041762323294364, 10.724362766606049 46.04145504272401, 10.724142825466771 46.041459736589786, 10.724149782446403 46.041627877567464, 10.724080547926206 46.041627877567464))","hospital",NA,NA,NA
NA,NA,NA,NA,NA,"POINT (10.945081495036476 46.01743736973256)","clinic",NA,10.9450814950365,46.0174373697326
"Farmacia Baldrachi","Via Enrico Leonardi","29",NA,"Tuenno","POINT (11.026120165669937 46.330529197362836)","pharmacy",NA,11.0261201656699,46.3305291973628
"Guardia Medica",NA,NA,NA,"Scancio","POINT (11.258575067285847 46.18744156064972)","hospital",NA,11.2585750672858,46.1874415606497
"Farmacia Ravagni",NA,NA,NA,NA,"POINT (11.003403280231964 45.759148352888474)","pharmacy",NA,11.003403280232,45.7591483528885
"Farmacia Franzellin",NA,NA,NA,NA,"POINT (11.002114143523897 45.75757657840538)","pharmacy",NA,11.0021141435239,45.7575765784054
NA,NA,NA,NA,NA,"POINT (10.885598816251445 45.91582548539779)","clinic",NA,10.8855988162514,45.9158254853978
NA,NA,NA,NA,NA,"POINT (10.96853959217205 45.83721153171436)","clinic",NA,10.968539592172,45.8372115317144
"Folgaresi",NA,NA,NA,NA,"POINT (10.971739635165648 45.993344427250605)","pharmacy",NA,10.9717396351656,45.9933444272506
NA,NA,NA,NA,NA,"POINT (10.638395453087526 45.9389006971964)","doctors",NA,10.6383954530875,45.9389006971964
"Farmacia Pieve Di Dino Ceschinelli",NA,NA,NA,NA,"POINT (10.639128785796174 45.93951701853675)","pharmacy",NA,10.6391287857962,45.9395170185367
NA,NA,NA,NA,NA,"POLYGON ((11.111085841759206 46.098445781695574, 11.111087937234998 46.09853982664919, 11.11121224085906 46.09853856936371, 11.111211821763902 46.098519123348325, 11.111269573076754 46.0985185366151, 11.111267980515152 46.098443853857844, 11.111085841759206 46.098445781695574))","doctors",NA,NA,NA
NA,NA,NA,NA,NA,"POINT (10.8436767275291 45.887729262141136)","clinic",NA,10.8436767275291,45.8877292621411
NA,NA,NA,NA,NA,"POINT (10.876440916482125 45.91627039681825)","dentist",NA,10.8764409164821,45.9162703968182
"Casa Di Cura Eremo",NA,NA,NA,NA,"POLYGON ((10.86995927457707 45.91942819501983, 10.870246187122689 45.919445880835525, 10.870238056676612 45.9195092480235, 10.870468139918728 45.91952349725889, 10.870474677803202 45.91947261910664, 10.870605854587865 45.91948074955272, 10.870631838487725 45.919277656038815, 10.870550953122091 45.91927262689691, 10.870521281184864 45.919270782878215, 10.8699836659153 45.919237590541655, 10.86995927457707 45.91942819501983))","hospital",NA,NA,NA
"Record Medicina Sportiva",NA,NA,NA,NA,"POLYGON ((10.869815860213777 45.91865789811817, 10.869875539364358 45.91875713985175, 10.869962375881244 45.91873182650417, 10.870052732797461 45.9188821978471, 10.87020519961618 45.91883777376029, 10.87005507973035 45.918588244502814, 10.869815860213777 45.91865789811817))","doctors",NA,NA,NA
"Guardia Medica",NA,NA,NA,NA,"POINT (11.13178637656975 46.05718594714298)","hospital",NA,11.1317863765697,46.057185947143
"Guardia Medica",NA,NA,38010,"Denno","POINT (11.049077360271866 46.274769843786515)","hospital",NA,11.0490773602719,46.2747698437865
"Guardia Medica",NA,NA,NA,"Mori","POINT (10.981324676720675 45.85114703247356)","hospital",NA,10.9813246767207,45.8511470324736
"Guardia Medica",NA,NA,NA,NA,"POINT (11.094684133629272 46.213037043094545)","hospital",NA,11.0946841336293,46.2130370430945
"Guardia Medica",NA,NA,NA,"Taio","POINT (11.06611123153914 46.32034082641735)","hospital",NA,11.0661112315391,46.3203408264174
"Poliambulatorio","Via Dello Stadio","17",38042,"Miola","POINT (11.25280035509445 46.12612886094479)","hospital",NA,11.2528003550945,46.1261288609448
"Farmacia Clarina","Via Alcide De Gasperi","112",38123,"Trento","POINT (11.125692816781623 46.04871603398615)","pharmacy",NA,11.1256928167816,46.0487160339862
"Ambulatorio",NA,NA,NA,NA,"POINT (11.477375094260822 46.0701440341731)","doctors",NA,11.4773750942608,46.0701440341731
"Farmacia Teseo Francesco",NA,NA,NA,NA,"POINT (11.480866659846782 46.07036749571171)","pharmacy",NA,11.4808666598468,46.0703674957117
"Ambulatorio",NA,NA,NA,NA,"POINT (11.12904633242232 46.193645677740676)","clinic",NA,11.1290463324223,46.1936456777407
NA,NA,NA,NA,NA,"POLYGON ((11.110931950016948 46.09817915335563, 11.110932788207265 46.09826414585379, 11.111037394358874 46.09826372675863, 11.111036556168557 46.09817873426047, 11.110931950016948 46.09817915335563))","pharmacy",NA,NA,NA
"Parafarmacia Conad",NA,NA,NA,NA,"POLYGON ((11.040004955914924 45.891205069749134, 11.040027084139297 45.89124773363628, 11.040075531539628 45.89123557987668, 11.040065640893886 45.891216385318415, 11.040101180163333 45.89120741668202, 11.040088942584703 45.89118403117217, 11.040054241505572 45.89119274835147, 11.040004955914924 45.891205069749134))","pharmacy",NA,NA,NA
"Farmacia Chinaglia","Via Stazione","6",38069,"Nago-Torbole","POLYGON ((10.892218843377862 45.87873422275047, 10.892277684338154 45.87881468902094, 10.892395952991933 45.87877219277186, 10.892376674614638 45.878746376510065, 10.892437694869727 45.878718548591536, 10.892402993790597 45.878665742601555, 10.892218843377862 45.87873422275047))","pharmacy",NA,NA,NA
"Comunale 5",NA,NA,NA,NA,"POLYGON ((11.013643618977113 45.868762188725924, 11.013717966458273 45.868785155140614, 11.01374319598682 45.86874525728152, 11.013707824355436 45.868733271159954, 11.013669938153072 45.86872128503842, 11.013643618977113 45.868762188725924))","pharmacy","Tu-Su 09:00-19:30, Mo 14:00-19:30",NA,NA
"Caredent",NA,NA,NA,NA,"POLYGON ((11.014236722445673 45.869197880052866, 11.014272177896089 45.86921942154402, 11.014413999697808 45.86930483313736, 11.01462723531452 45.86913325557941, 11.01457585424808 45.86910383509925, 11.014534531465443 45.86908061722747, 11.014480887285117 45.86905044237605, 11.014433278075103 45.86908899913064, 11.01439497277758 45.86909453118673, 11.01435826004169 45.869100985252174, 11.014236722445673 45.869197880052866))","dentist","Mo-Sa 09:00-20:00",NA,NA
NA,"Via Falcone E Borsellino","4",NA,"Bezzecca","POLYGON ((10.72077497677165 45.895670696302886, 10.720778497170983 45.895736661880846, 10.720780760284839 45.895780163958335, 10.720964994516606 45.89577547009256, 10.720962479945655 45.89572819615864, 10.721050825205083 45.895725849225755, 10.721045628425117 45.89562736186346, 10.720971951496239 45.89562928970119, 10.720967760544653 45.895551338001695, 10.720826525476184 45.89555494222006, 10.7208326442655 45.895669187560316, 10.72077497677165 45.895670696302886))","hospital",NA,NA,NA
"Remondini","Via Santa Caterina","4/B",38062,"Arco","POINT (10.880506390978354 45.91697196211385)","dentist",NA,10.8805063909784,45.9169719621138
NA,NA,NA,NA,NA,"POINT (10.952196557364346 45.89150262731178)","pharmacy",NA,10.9521965573643,45.8915026273118
NA,NA,NA,NA,NA,"POINT (10.979005739388697 45.85196435185199)","pharmacy",NA,10.9790057393887,45.851964351852
NA,NA,NA,NA,NA,"POINT (11.118130496100406 45.782725556868144)","pharmacy",NA,11.1181304961004,45.7827255568681
"Comprensorio C8",NA,NA,NA,NA,"POLYGON ((10.72360252798822 46.03394544421377, 10.723744265970879 46.034126074227174, 10.723999243465414 46.03402968234067, 10.723857589301787 46.03384905232727, 10.72360252798822 46.03394544421377))","doctors",NA,NA,NA
"Farmacia",NA,NA,NA,NA,"POLYGON ((11.111226490094452 46.040714082483476, 11.111268231972247 46.04093779547918, 11.111397397100177 46.04092614463377, 11.111355571403323 46.04070243163807, 11.111226490094452 46.040714082483476))","pharmacy",NA,NA,NA
NA,NA,NA,NA,NA,"POLYGON ((11.00026115618931 45.75641987576742, 11.000482857528254 45.75653135507963, 11.000497190582678 45.756538479697326, 11.000594755935623 45.75643018550832, 11.000517223331258 45.756386431973766, 11.00062392495866 45.756273946833176, 11.00071436569391 45.756313425597114, 11.000803549143683 45.7562140162255, 11.000483360442445 45.756048557456836, 11.000424268025085 45.75609465792431, 11.000401050153272 45.756119384538664, 11.00039652392556 45.75612558714701, 11.000486294108555 45.756171268519296, 11.000475565272495 45.75618275172664, 11.000484533908889 45.75619046307756, 11.00026115618931 45.75641987576742))","hospital",NA,NA,NA
NA,NA,NA,NA,NA,"POLYGON ((11.029173022443786 45.88374224225859, 11.02920302965714 45.883747271400495, 11.029208226437106 45.88373201633672, 11.029226834262147 45.88367803688027, 11.029196827048793 45.8836730915574, 11.029173022443786 45.88374224225859))","clinic",NA,NA,NA
"Farmacia Farmadonna",NA,NA,NA,NA,"POINT (11.462073343284345 46.2907520376626)","pharmacy",NA,11.4620733432843,46.2907520376626
NA,NA,NA,NA,NA,"POINT (10.8545175458176 46.05196846387457)","pharmacy",NA,10.8545175458176,46.0519684638746
"Dental Medical Service",NA,NA,NA,NA,"POINT (11.125402048560545 46.06194108463234)","dentist",NA,11.1254020485605,46.0619410846323
"Dentalmed",NA,NA,NA,NA,"POINT (11.111963343202433 46.040544432763255)","dentist",NA,11.1119633432024,46.0405444327633
"Dott.Ssa Petra Burdich-Ravelli","Via Paolo Ravelli","24",NA,NA,"POINT (10.882194422458468 46.33264453826672)","doctors",NA,10.8821944224585,46.3326445382667
"Ambulatorio Medico",NA,NA,NA,NA,"POINT (10.880816772852882 46.33244119329575)","doctors",NA,10.8808167728529,46.3324411932958
"Apss Ambulatori Pediatrici",NA,NA,NA,NA,"POINT (11.11959858644127 46.05971007346466)","clinic",NA,11.1195985864413,46.0597100734647
"Poliambulatorio",NA,NA,NA,NA,"POLYGON ((10.90939436880879 46.35069907388345, 10.909538956638528 46.350801668378296, 10.909875070955792 46.35057602754486, 10.90995226828403 46.3506307613726, 10.910085959639645 46.350540991189604, 10.909868365433255 46.35038659653313, 10.909724783431898 46.35048298841963, 10.909618165623527 46.35040729983399, 10.909472488146378 46.35050503282497, 10.909574831184102 46.35057778774453, 10.90939436880879 46.35069907388345))","doctors",NA,NA,NA
"Medico Di Famiglia","Via San Martino","11",38122,"Trento","POLYGON ((11.12573816287778 46.07402628026597, 11.125778898927223 46.07404798939521, 11.12590881842641 46.073910274726046, 11.125862047406684 46.073889236149085, 11.12573816287778 46.07402628026597))","doctors",NA,NA,NA
"Farmacie Comunali",NA,NA,NA,NA,"POINT (11.025200838529855 45.91185983936833)","pharmacy",NA,11.0252008385299,45.9118598393683
"Farmacia Dr. Carla Bourlot","Via Delle Roge","9",NA,NA,"POINT (10.693536222209644 46.35100719264412)","pharmacy",NA,10.6935362222096,46.3510071926441
"Ambulatori",NA,NA,NA,NA,"POLYGON ((11.106717445282271 46.14199664184258, 11.106789362011483 46.142088758958465, 11.107053224323408 46.141989936320044, 11.1069813914132 46.14189773538513, 11.106717445282271 46.14199664184258))","hospital",NA,NA,NA
NA,NA,NA,NA,NA,"POINT (10.93947249307081 45.73491627081384)","pharmacy",NA,10.9394724930708,45.7349162708138
"Le Palme","Largo Arciduca Alberto D'Asburgo","1",NA,NA,"POLYGON ((10.8828027809908 45.91906634825983, 10.883041497593183 45.91949449587392, 10.883093465392875 45.91959072012236, 10.88314845067768 45.91965651806228, 10.883187342708425 45.919687363465954, 10.88326579732211 45.91971711922221, 10.883367553626641 45.9197400856369, 10.883415079017652 45.91971359882288, 10.883438296889437 45.91970119360619, 10.88351708677925 45.919651321282316, 10.883580034872097 45.91960949558546, 10.883629823376936 45.91957823108663, 10.883725125616024 45.91953405845692, 10.883853871648768 45.91947437930631, 10.883947665145286 45.919430793409816, 10.88401723494161 45.91939483504518, 10.884056126972354 45.91937614340111, 10.884174227988069 45.91933649699911, 10.884261399781082 45.9192973535113, 10.884415542980435 45.919249744301254, 10.884440185775759 45.91930498104318, 10.884502295678288 45.91928855251297, 10.8844915668422 45.91926332298439, 10.884647889336406 45.91922057527822, 10.88460153741184 45.919191573893244, 10.884584186872274 45.91917564827722, 10.884571530198485 45.919162237232115, 10.884565327590138 45.91915234658637, 10.88455267091635 45.919131475647475, 10.884553257649571 45.91910197134831, 10.884553257649571 45.919080597495224, 10.884558622067601 45.9190506741009, 10.88456935090366 45.91901429664111, 10.884582761948735 45.91899183314061, 10.884665994247257 45.918874318858116, 10.884672699769794 45.9188594828895, 10.88467538197881 45.91884263526413, 10.884665826609194 45.91876392919332, 10.883032445137758 45.918975572248456, 10.88288928223156 45.918994096254465, 10.882860867579808 45.91901614065981, 10.882821975549092 45.91904782425382, 10.8828027809908 45.91906634825983))","hospital",NA,NA,NA
NA,NA,NA,NA,NA,"POLYGON ((10.872527322071363 45.91878949399799, 10.87281029512252 45.91924706209224, 10.872825047272102 45.91931562606021, 10.872612566026646 45.91933104876205, 10.872654475542504 45.91956146728029, 10.873623926463551 45.919526347106, 10.874108987200202 45.91948049809562, 10.8743846679956 45.919566580241224, 10.874338064613937 45.91965056691103, 10.874624138969267 45.9197316199147, 10.874673843655074 45.91965492550068, 10.874734863910192 45.91967646699183, 10.874857574972651 45.919747461711694, 10.875127053159673 45.919940748398886, 10.875752929869634 45.920372416412334, 10.875869019228588 45.92043913636158, 10.876038417491714 45.92055405225409, 10.876093235138484 45.92051214273823, 10.876122236523457 45.92048993069483, 10.876167666438647 45.92045514579664, 10.876195159081078 45.92043326902936, 10.876383751902466 45.92028323296256, 10.876466648924861 45.920217351203604, 10.87648609494022 45.92020184468274, 10.876470085505161 45.920188098361535, 10.876397749680763 45.920125485544816, 10.87622064006672 45.91999573368369, 10.876179820198274 45.91987536955412, 10.876142939824291 45.919851145853954, 10.87615023208005 45.91980403955813, 10.876107316735812 45.91977554108735, 10.876071861285396 45.91975274231069, 10.876013523239294 45.91971393409901, 10.876059623706766 45.91968082558148, 10.876113854620286 45.91965593132906, 10.876210078868723 45.919058720727946, 10.876165738600918 45.91902427110588, 10.876134390283056 45.91904338184514, 10.876012265953818 45.91895947899437, 10.876035064730445 45.91894707377767, 10.87597127844731 45.91890172768149, 10.875938169929782 45.918879599457114, 10.87588083771206 45.918850849529235, 10.87559677501352 45.91881304714593, 10.875523852455899 45.918827883114545, 10.87539678280379 45.91891882676396, 10.875330481949675 45.91888052146646, 10.875311957943666 45.918869876449435, 10.875323944065201 45.9188629194698, 10.875351185250537 45.91884313817832, 10.87536602121915 45.91882972713324, 10.875376917693274 45.91881556171688, 10.875372642922656 45.9188042461476, 10.875360237705962 45.91879578042537, 10.87508137178736 45.918808353280156, 10.874900155040763 45.91882318924877, 10.87455725138193 45.91885738741371, 10.874347619983553 45.91887498941037, 10.87413145070073 45.91888932246479, 10.87409079847032 45.918908517023056, 10.874016283351125 45.91889016065511, 10.87390849207631 45.91887607905778, 10.873526780205793 45.91883609737965, 10.873444553735652 45.91882955949518, 10.873254116895538 45.91881086785111, 10.873061081665469 45.91879033218831, 10.872957816618367 45.91878002244741, 10.87271641780697 45.91877725641936, 10.872571578520137 45.91878195028514, 10.872527322071363 45.91878949399799))","hospital",NA,NA,NA
"Regina",NA,NA,NA,NA,"POLYGON ((10.88675342341358 45.91681186776324, 10.886950062862041 45.9170206609713, 10.88708685552183 45.9171606387543, 10.887398075586674 45.91748158182682, 10.887686999789054 45.917349734489875, 10.888216065517355 45.91710607256462, 10.888217490440894 45.917029545788665, 10.888221094659258 45.91697003427612, 10.888216652250577 45.91690113503205, 10.888230398571778 45.91665093522232, 10.888245150721389 45.916525961046005, 10.888263171813207 45.916405680735465, 10.888242217055279 45.916411045153495, 10.887179727008998 45.91668697740596, 10.887155251851738 45.91665914948743, 10.887125077000292 45.91666828576189, 10.886967832496765 45.9167177389906, 10.886830285465692 45.916777250503145, 10.88675342341358 45.91681186776324))","hospital",NA,NA,NA
NA,NA,NA,NA,NA,"POLYGON ((10.869918370889593 45.91936876732632, 10.86992608224051 45.91943775038945, 10.87009028372367 45.91963397074272, 10.870172091098652 45.91975006010168, 10.870243756370769 45.91972466293507, 10.870277954535737 45.91975902873807, 10.87037283767964 45.91972172926896, 10.87049806331305 45.919651740377475, 10.870556988092375 45.91961905095508, 10.870699228989224 45.91952835876276, 10.870720938118438 45.91951444480347, 10.870748179303746 45.919486784523, 10.870797716351518 45.91943624164688, 10.870838117124805 45.919367677678906, 10.870862424644002 45.919299197529995, 10.870858485149512 45.919183359628136, 10.870859071882734 45.91915385532894, 10.870859574796924 45.919143126492884, 10.870858233692417 45.91909518200674, 10.870784724401602 45.91909392472127, 10.870769553156862 45.919093840902235, 10.870705431597571 45.91909342180708, 10.8705953772089 45.91909006904581, 10.87045799781589 45.91908101659038, 10.87028348659183 45.91906685117402, 10.870159350605832 45.9190593912802, 10.870102688940364 45.91906634825983, 10.870046027274924 45.919084536989715, 10.869992131637503 45.91911571766951, 10.869957179101277 45.919161734317925, 10.869947456093598 45.91919098716002, 10.869926333697606 45.919190232788736, 10.869920047270227 45.91925359997671, 10.869918370889593 45.91936876732632))","hospital",NA,NA,NA
"Medico Di Base",NA,NA,NA,NA,"POINT (11.09523608195326 46.32158419793413)","hospital",NA,11.0952360819533,46.3215841979341
NA,NA,NA,NA,NA,"POINT (11.235001551343544 46.041419168178436)","pharmacy",NA,11.2350015513435,46.0414191681784
NA,NA,NA,38012,"Coredo","POINT (11.088928783634202 46.34858146986571)","pharmacy",NA,11.0889287836342,46.3485814698657
NA,NA,NA,NA,NA,"POINT (10.57750335728386 45.84877713317027)","dentist",NA,10.5775033572839,45.8487771331703
"Casa Rusca",NA,NA,NA,NA,"POLYGON ((10.775080740699622 46.052769438541816, 10.775283918032557 46.05289198196621, 10.775467816988197 46.05274487956552, 10.775264639655262 46.05262241996016, 10.775080740699622 46.052769438541816))","doctors",NA,NA,NA
"Thaler",NA,NA,NA,NA,"POINT (11.040393624765073 45.889879052667084)","pharmacy","Mo-Sa 07:45-19:45",11.0403936247651,45.8898790526671
"Farmacia Valle Dei Mocheni","Località Pintarei","75",38050,"Sant'Orsola Terme","POINT (11.302132381498296 46.10918232910859)","pharmacy","Mo-Fr 08:30-12:00,15:00-19:00; Sa 08:30-12:00; Su off",11.3021323814983,46.1091823291086
NA,NA,NA,NA,NA,"POINT (10.535223445115065 45.8300232953718)","dentist",NA,10.5352234451151,45.8300232953718
"Studio Odontoiatrico",NA,NA,NA,NA,"POINT (11.05797625923313 46.070560028027614)","hospital",NA,11.0579762592331,46.0705600280276
"Studio Dentistico Dott. Paolo Rella",NA,NA,NA,NA,"POINT (11.043109780488436 45.89235188174132)","dentist",NA,11.0431097804884,45.8923518817413
"Parafarmacia",NA,NA,NA,NA,"POLYGON ((11.241070468336346 46.06101086101813, 11.241162753090265 46.06108353211866, 11.241334749743402 46.06097833923383, 11.241242548808486 46.06090566813333, 11.241070468336346 46.06101086101813))","pharmacy",NA,NA,NA
"Dott. Cattani",NA,NA,NA,NA,"POINT (10.736228524014592 46.101041573289365)","pharmacy",NA,10.7362285240146,46.1010415732894
"Ambulatorio Medico Di Canale",NA,NA,NA,NA,"POINT (11.227545429375539 46.042300692935186)","clinic","We 16:30-17:00; PH off; Th[3] 15:00-16:00",11.2275454293755,46.0423006929352
"Ambulatori Medico E Guardia Medica","Via Florida","1",38060,"Aldeno","POLYGON ((11.092461588183795 45.9757676601148, 11.09246619823054 45.97584284578625, 11.092695946196528 45.97583622408274, 11.092685971731726 45.975669256571535, 11.092562422478949 45.9756728607899, 11.092567954535042 45.975764558810624, 11.092461588183795 45.9757676601148))","hospital",NA,NA,NA
"San Pancrazio",NA,NA,NA,NA,"POLYGON ((10.878419464726221 45.91501638028444, 10.8787772881727 45.91532223593126, 10.87880176332996 45.91533447350989, 10.878820957888223 45.91533992174695, 10.878842331741339 45.915343190689185, 10.87886538197506 45.91534444797466, 10.878891868789083 45.915335395519236, 10.878924390573388 45.91531737442742, 10.879012568194781 45.91540169637332, 10.878985494647537 45.91543254177702, 10.878980968419825 45.91546456064714, 10.878996474940692 45.91549389730824, 10.879285063866945 45.91574527058441, 10.879323872078658 45.91578114512998, 10.879356058586836 45.9158109847053, 10.879464939509063 45.91589488755605, 10.879470555384188 45.915936797071936, 10.879868695784921 45.91617668714076, 10.879891997475738 45.9161833926633, 10.879914293338175 45.916183644120395, 10.879936673019671 45.91618112954944, 10.879990484838032 45.91616403046697, 10.880021833155894 45.91614416535643, 10.880121074889473 45.91608079816845, 10.880136832867436 45.91609144318548, 10.88019525473257 45.91605188060251, 10.880423326317924 45.91589187007091, 10.880645530571059 45.91566748652298, 10.880749549989417 45.91555332500175, 10.880810486425503 45.91547604385448, 10.880747538332656 45.91540437858234, 10.880650559712961 45.91530195172555, 10.88061326024382 45.91526255678065, 10.880159547825059 45.91480515632446, 10.88026759055694 45.914757966209606, 10.880192740161618 45.91467783521526, 10.880155775968603 45.91463332730942, 10.880071789298825 45.91454188074579, 10.879958885063076 45.914424450282326, 10.87931859147966 45.914699125249314, 10.87915673692936 45.91476676720794, 10.878983734447871 45.914835582633, 10.878782987866856 45.91491655181764, 10.8787133342515 45.914843545441016, 10.878629766676852 45.9148926633936, 10.878481658447782 45.91497975136758, 10.878419464726221 45.91501638028444))","hospital",NA,NA,NA
NA,NA,NA,NA,NA,"POINT (11.659493733653647 46.3770565551458)","pharmacy",NA,11.6594937336536,46.3770565551458
"Festa Parafarmacia Profumeria",NA,NA,NA,NA,"POINT (11.660979593629236 46.376140999862145)","pharmacy",NA,11.6609795936292,46.3761409998621
"Crosina","Via Pier Antonio Cassoni","40",38067,"Pieve Di Ledro","POINT (10.730278797684946 45.89008717532286)","dentist",NA,10.7302787976849,45.8900871753229
"Progetto Salute S.R.L","Via Milano","110",38122,"Trento","POINT (11.12967514279839 46.06195885426706)","doctors",NA,11.1296751427984,46.0619588542671
"Farmacia Comunale N°1",NA,NA,38068,"Rovereto","POINT (11.040143760231473 45.89174545104672)","pharmacy",NA,11.0401437602315,45.8917454510467
"Studio C7 - Studio Di Fisioterapia","Via Bartolomeo Malfatti","21",38122,"Trento","POINT (11.12563841823004 46.061768333607944)","doctors",NA,11.12563841823,46.0617683336079
NA,NA,NA,NA,NA,"POINT (11.436211148680513 46.28185422834875)","pharmacy","Mo-Sa 08:30-12:15,15:30-19:00",11.4362111486805,46.2818542283487
NA,NA,NA,NA,NA,"POINT (11.417223371964468 46.272563223957036)","pharmacy","Mo-Fr 09:15-12:15",11.4172233719645,46.272563223957
"Croce Bianca Fai Della Paganella",NA,NA,NA,NA,"POLYGON ((11.070817167256877 46.178185341156166, 11.070891850014164 46.17825591678087, 11.071068456714016 46.178166398055, 11.07099385777579 46.17809573861123, 11.070817167256877 46.178185341156166))","hospital",NA,NA,NA
NA,"Piazza Mario Garbari","1",38057,"Pergine Valsugana","POINT (11.241366684794485 46.06055672950421)","pharmacy",NA,11.2413666847945,46.0605567295042
"Studio Odontoiatrico Fiemazzo","Via Della Palanca","17A",38050,"Scurelle","POINT (11.505056329491339 46.06380756683103)","dentist",NA,11.5050563294913,46.063807566831
"Dispensario Farmaceutico",NA,NA,NA,NA,"POINT (11.552570656372978 46.04382645076987)","pharmacy",NA,11.552570656373,46.0438264507699
"Farmacia San Giorgio","Via Unione","82",NA,NA,"POINT (11.028174570137764 45.89416203755067)","pharmacy",NA,11.0281745701378,45.8941620375507
NA,NA,NA,NA,NA,"POINT (10.978472734165905 45.84965346114706)","clinic",NA,10.9784727341659,45.8496534611471
"Ambulatorio",NA,NA,NA,NA,"POINT (11.463795656748431 46.04094693175364)","doctors",NA,11.4637956567484,46.0409469317536
"Ambulatorio",NA,NA,NA,NA,"POINT (11.448631452803028 46.07225099317384)","doctors",NA,11.448631452803,46.0722509931738
"Ambulatorio","Via Tre Novembre","8",38050,"Telve Di Sopra","POINT (11.472904438565166 46.072812580686445)","doctors",NA,11.4729044385652,46.0728125806864
"Parafarmacia E' Qui","Via Padova","5",38066,"Riva Del Garda","POINT (10.854145640773794 45.882622755270745)","pharmacy",NA,10.8541456407738,45.8826227552707
"Studiomedico5",NA,"20",NA,"Rovereto","POINT (11.039154192742814 45.89278405266896)","doctors",NA,11.0391541927428,45.892784052669
"Farmacia Gallina","Via Quattro Novembre","48",38020,"Mezzana","POINT (10.801600579426434 46.315901519039585)","pharmacy",NA,10.8016005794264,46.3159015190396
"Farmacia Bolghera","Largo Medaglie D'Oro","8",38122,"Trento","POINT (11.132761946280112 46.0580396439812)","pharmacy",NA,11.1327619462801,46.0580396439812
"Farmacia Comunale","Via Dante","12",38053,"Castello Tesino","POINT (11.633939741629547 46.06249185948988)","pharmacy",NA,11.6339397416295,46.0624918594899
"Ambulatorio Medico Castello Tesino","Via Maestro Piero",NA,38053,"Castello Tesino","POINT (11.633359378653807 46.06447158120042)","doctors",NA,11.6333593786538,46.0644715812004
"Farmacia Pieve Tesino",NA,NA,NA,"Pieve Tesino","POINT (11.611717137021714 46.06811226084383)","pharmacy",NA,11.6117171370217,46.0681122608438
"Ambulatorio Medico",NA,NA,NA,NA,"POINT (11.510054290715658 46.064426821837486)","doctors",NA,11.5100542907157,46.0644268218375
NA,NA,NA,NA,NA,"POINT (11.799205055949471 46.151058820277655)","dentist",NA,11.7992050559495,46.1510588202777
"Poliambulatorio",NA,NA,NA,NA,"POINT (11.454745045339735 46.05382094829494)","doctors",NA,11.4547450453397,46.0538209482949
NA,NA,NA,NA,NA,"POINT (11.097408587436803 46.15182626733221)","clinic",NA,11.0974085874368,46.1518262673322
"Farmacia Dall'Armi","Piazza Del Duomo","10",38122,"Trento","POINT (11.121913584278758 46.06767439022207)","pharmacy",NA,11.1219135842788,46.0676743902221
"Farmacia Santoni","Piazza Mario Pasi","20",38122,"Trento","POINT (11.122398058282187 46.067792155961655)","pharmacy",NA,11.1223980582822,46.0677921559617
"Farmacia Lamberto Gallo","Via Mantova","51",38122,"Trento","POINT (11.124188181342959 46.06741237192887)","pharmacy",NA,11.124188181343,46.0674123719289
"Morelli",NA,NA,NA,NA,"POINT (11.248064160706264 46.13356268705036)","pharmacy",NA,11.2480641607063,46.1335626870504
NA,NA,NA,NA,NA,"POINT (11.410549197743535 46.052989379681094)","dentist",NA,11.4105491977435,46.0529893796811
"Farmacia Santa Chiara","Via Santa Croce","57",38122,"Trento","POINT (11.123706557186608 46.063666918495755)","pharmacy",NA,11.1237065571866,46.0636669184958
NA,NA,NA,NA,NA,"POINT (11.195661340255754 46.14253626876888)","pharmacy",NA,11.1956613402558,46.1425362687689
"Farmacia Alberto Foletto","Via Nuova","4",38067,"Ledro","POINT (10.732260279595152 45.88855102392827)","pharmacy",NA,10.7322602795952,45.8885510239283
"Ambulatorio Medico Generico","Dante Alighieri","3",38068,"Rovereto","POINT (11.040382560652887 45.88969833883465)","clinic","Mo-Fr 08:00-12:00+,15:15-19:00",11.0403825606529,45.8896983388346
"Farmacia Barbacovi","Via Benacense","11/B",38068,"Rovereto","POINT (11.039754756105197 45.88300781990253)","pharmacy","Mo-Fr 08:00-12:30; 14:45-19:15; Sa 08:00-12:30",11.0397547561052,45.8830078199025
"Ambulatorio Medicina Di Gruppo",NA,NA,NA,NA,"POINT (11.247188670919769 46.06394679024274)","clinic",NA,11.2471886709198,46.0639467902427
NA,NA,NA,NA,NA,"POINT (11.033507556031907 45.91514495867912)","dentist",NA,11.0335075560319,45.9151449586791
"Farmacia",NA,NA,NA,NA,"POINT (11.732901771095044 46.15526997225106)","pharmacy",NA,11.732901771095,46.1552699722511
"Parafarmacia",NA,NA,NA,NA,"POINT (11.460217170826553 46.29102646117249)","pharmacy",NA,11.4602171708266,46.2910264611725
NA,NA,NA,NA,NA,"POINT (11.004751174081292 45.75891064211447)","clinic",NA,11.0047511740813,45.7589106421145
NA,NA,NA,NA,NA,"POINT (11.002285972538942 45.75762787565279)","clinic",NA,11.0022859725389,45.7576278756528
NA,"Piazza Del Municipio","11",38059,"Castel Ivano","POINT (11.52328462196084 46.066600081692314)","dentist",NA,11.5232846219608,46.0666000816923
"Farmacia Ferri","Via Alla Formigheta","1",NA,NA,"POINT (11.13160247761411 46.0893458846962)","pharmacy",NA,11.1316024776141,46.0893458846962
"Farmacia Margonari Ada","Piazza Guglielmo Marconi","24B",38018,"Molveno","POINT (10.966234652618368 46.14256191739261)","pharmacy","08:30-12:30,15:30-19:30",10.9662346526184,46.1425619173926
"Centro Polifunzionale Asl",NA,NA,NA,NA,"POINT (11.12962719831225 46.04490754864119)","doctors",NA,11.1296271983122,46.0449075486412
"Farmacia Madonna Bianca",NA,NA,NA,NA,"POINT (11.133373322297587 46.0401731982717)","pharmacy","Mo-Sa 08:30-12:00, Mo-Fr 15:00-19:00",11.1333733222976,46.0401731982717
"Centro Phoenix","Via Generale De Medici","1",38051,"Borgo Valsugana","POINT (11.453784646874112 46.05408405623555)","doctors",NA,11.4537846468741,46.0540840562356
"Mutalipassi","Via Lutti","12",38066,"Riva Del Garda","POINT (10.845164599161421 45.886860394058175)","pharmacy",NA,10.8451645991614,45.8868603940582
"Farmacia San Bartolameo",NA,NA,NA,NA,"POINT (11.129626527759996 46.053702763460194)","pharmacy",NA,11.12962652776,46.0537027634602
"Ambulatorio Dentistico",NA,NA,NA,NA,"POINT (11.129955182183409 46.053954555831524)","doctors",NA,11.1299551821834,46.0539545558315
"Farmacia Scaglia","Viale Della Pace",NA,NA,NA,"POINT (10.765461081884496 46.160153436678)","pharmacy",NA,10.7654610818845,46.160153436678
"Farmacia Communale",NA,NA,NA,NA,"POLYGON ((10.832746725790827 45.91833175826571, 10.832847979181167 45.918347683881734, 10.832894666381861 45.918200581481045, 10.832798693590519 45.9181859969695, 10.832746725790827 45.91833175826571))","pharmacy",NA,NA,NA
"Ambulatorio Dentistico Madonna Bianca",NA,NA,NA,NA,"POINT (11.13338765535201 46.04053772724072)","dentist",NA,11.133387655352,46.0405377272407
"Farmacia San Lorenzo","Piazza General Antonio Cantore","1",38121,"Trento","POINT (11.119106987820118 46.076996994388736)","pharmacy","Mo-Sa 08:30-12:30,15:00-19:00",11.1191069878201,46.0769969943887
"Farmacia Comunale",NA,NA,NA,NA,"POINT (11.120588824482184 46.05791969894679)","pharmacy",NA,11.1205888244822,46.0579196989468
"Ambulatori",NA,NA,NA,NA,"POINT (11.1064161996822 46.03786934836543)","doctors",NA,11.1064161996822,46.0378693483654
"Ambulatorio",NA,NA,NA,NA,"POINT (11.13096687789647 46.04791103600536)","doctors",NA,11.1309668778965,46.0479110360054
"Ambulatori",NA,NA,NA,NA,"POINT (11.131589988578384 46.064608625317305)","doctors",NA,11.1315899885784,46.0646086253173
"Farmacia Comunale San Camillo","Via Benedetto Giovanelli","5",NA,NA,"POINT (11.132012017403156 46.06552761718126)","pharmacy",NA,11.1320120174032,46.0655276171813
"Casarossa - Ambulatorio - Auditorium",NA,NA,NA,NA,"POINT (11.236229835434585 45.980034551744296)","doctors",NA,11.2362298354346,45.9800345517443
"Tecnisan Articoli Sanitari",NA,NA,NA,NA,"POINT (11.128672080445625 46.044559532021424)","pharmacy",NA,11.1286720804456,46.0445595320214
NA,"Corso Michelangelo Buonarroti","51",38122,"Trento","POINT (11.118859386400374 46.073856965821875)","clinic",NA,11.1188593864004,46.0738569658219
"Farmacia Dott. Barbacovi Giorgio","Piazza Cesare Battisti","4",38068,"Aldeno","POLYGON ((11.09098318810203 45.977183028284685, 11.090988468701028 45.977292495940105, 11.091174127856334 45.977288137350456, 11.091168847257336 45.97717866969501, 11.09098318810203 45.977183028284685))","pharmacy","Mo-Fr 08:30-12:00, 15:30-19:00",NA,NA
"Casa Della Salute",NA,NA,NA,NA,"POLYGON ((10.574013970992723 45.84717409418835, 10.574032830274888 45.84717568674995, 10.574183285436845 45.847187756690516, 10.574203234366394 45.84718934925212, 10.574226452238179 45.8470508802117, 10.57424019855938 45.84705196985911, 10.57427255270565 45.84705917829584, 10.574339524111991 45.846980388405996, 10.574340865216499 45.846968569922524, 10.574342290140038 45.84695968510516, 10.574254950708962 45.84695314722069, 10.57425143030963 45.8469732637883, 10.574219746715642 45.84697066539832, 10.574220920182086 45.84696354078062, 10.574203653461552 45.84696203203805, 10.57420792823217 45.84693722160466, 10.574092257968374 45.84692749859698, 10.574087983197757 45.8469523928494, 10.574070465020128 45.84695088410683, 10.574051354280897 45.84694937536426, 10.574013970992723 45.84717409418835))","doctors",NA,NA,NA
"Farmacia Grandi","Via Alessandro Manzoni","7/A",38122,"Trento","POINT (11.125191578971851 46.073819833990825)","pharmacy","Mo-Fr 08:00-13:00,15:00-19:00; Sa 08:30-12:30",11.1251915789719,46.0738198339908
"Farmacia Comunale","Via Delle Sugarine","30",38121,"Meano","POINT (11.116508597836344 46.126400099331505)","pharmacy","Mo-Fr 08:00-12:15, 15:00-19:00; Sa 08:00-12:15",11.1165085978363,46.1264000993315
"Ex Villa Rosa",NA,NA,NA,NA,"POINT (11.219715558345058 46.074650480595324)","hospital",NA,11.2197155583451,46.0746504805953
"Azienda Pubblica Servizi Alla Persona (Apsp) Villa San Lorenzo",NA,NA,NA,NA,"POLYGON ((10.574755937061667 45.848418890628636, 10.574757781080365 45.848438336643994, 10.574758619270682 45.84844202468139, 10.574772617048978 45.848469098228634, 10.57479617019689 45.84849281901464, 10.574827099419593 45.848510253373234, 10.574829027257323 45.84851687507674, 10.574833972580194 45.848587031606286, 10.574898094139485 45.84858476849243, 10.574899770520119 45.84860572325039, 10.574906476042656 45.84868199856925, 10.575292462683791 45.848667246419666, 10.575300341672772 45.848666743505476, 10.575303862072104 45.84871108377325, 10.575315764374608 45.848710664678094, 10.575321799344891 45.84877604352286, 10.575321883163923 45.84877704935124, 10.575464459336928 45.84877143347612, 10.575460268385314 45.848713179249046, 10.575719688288558 45.84870219895589, 10.575721197031129 45.84871535854387, 10.575733518428791 45.84871493944871, 10.57571977210759 45.848551827612965, 10.57570753452896 45.848552330527156, 10.575708624176372 45.84856557393417, 10.575529167629412 45.84857295000896, 10.575528077982 45.848559119868725, 10.57551491839402 45.84840061807972, 10.575493963636092 45.84813977325297, 10.575394470445417 45.84814346129036, 10.575392458788656 45.8481224227134, 10.575284164599651 45.84812678130305, 10.575284751332873 45.84814773606098, 10.575186096332516 45.8481517593745, 10.575205793804969 45.8483984387849, 10.57508065199059 45.84840338410777, 10.575045364178237 45.84840455757421, 10.575035976446685 45.848379747140825, 10.575013093851027 45.84835627781192, 10.574981494076042 45.84833725089172, 10.574942769683389 45.84832375602761, 10.574942266769199 45.84831068025866, 10.574845371968507 45.84831445211509, 10.574846377796888 45.848328785169514, 10.574813520736456 45.84834228003362, 10.574784770808577 45.84836273187739, 10.574765157155156 45.848388129044, 10.574756691432952 45.84841612460059, 10.574755937061667 45.848418890628636))","doctors",NA,NA,NA
"Farmacia Crescini","Piazza Giovanni Serra","8",38057,"Pergine Valsugana","POINT (11.23830469174618 46.05988223775583)","pharmacy","Mo-Sa 08:30-12:00, Mo-Sa 15:00-19:00",11.2383046917462,46.0598822377558
"Dentista Menoni","Via Castel Beseno","1",38060,"Calliano","POINT (11.09750665570391 45.93668033104575)","dentist",NA,11.0975066557039,45.9366803310457
NA,NA,NA,NA,NA,"POINT (11.220955241824413 46.174728895744494)","pharmacy",NA,11.2209552418244,46.1747288957445
NA,NA,NA,NA,NA,"POINT (11.220583588237702 46.17522988209717)","doctors",NA,11.2205835882377,46.1752298820972
"Pronto Soccorso Ospedale Di Arco",NA,NA,NA,"Arco","POINT (10.875113977390725 45.91907699327686)","hospital",NA,10.8751139773907,45.9190769932769
"Pronto Soccorso Ospedale Di Fiemme",NA,NA,38033,"Cavalese","POINT (11.455898562854486 46.28836788912392)","hospital",NA,11.4558985628545,46.2883678891239
"Pronto Soccorso Ospedale San Lorenzo","Corso Vicenza","9",38051,"Borgo Valsugana","POINT (11.463251084499262 46.05683072208649)","hospital",NA,11.4632510844993,46.0568307220865
"Pronto Soccorso Ospedale Tione Di Trento",NA,NA,NA,"Tione Di Trento","POINT (10.724556556207432 46.0422013673826)","hospital",NA,10.7245565562074,46.0422013673826
"Pronto Soccorso","Corso Verona","4",38068,"Rovereto","POINT (11.040161529866197 45.88117335657398)","hospital",NA,11.0401615298662,45.881173356574
"Farmacia San Francesco","Via Giuseppe Giusti","22",38122,"Trento","POINT (11.11879325318435 46.0610397785841)","pharmacy",NA,11.1187932531844,46.0610397785841
"Farmacia Romani","Via Giuseppe Segantini","1",38015,"Lavis","POINT (11.107142323954122 46.141345032689856)","pharmacy","Mo-Sa 08:00-12:15,15:00-19:15",11.1071423239541,46.1413450326899
"Farmacia Comunale San Giuseppe","Viale Trento","98",38066,"Riva Del Garda","POINT (10.849863326442431 45.89479277576447)","pharmacy",NA,10.8498633264424,45.8947927757645
"Guardia Medica",NA,NA,NA,NA,"POINT (10.87373976436541 46.035517051058804)","doctors",NA,10.8737397643654,46.0355170510588
NA,NA,NA,NA,NA,"POINT (10.872421458634278 46.03537833056129)","pharmacy",NA,10.8724214586343,46.0353783305613
NA,NA,NA,NA,NA,"POINT (10.870062120529013 46.03641123248937)","dentist",NA,10.870062120529,46.0364112324894
"Farmacia Nardelli Gabriele","Via Giuseppe Mazzini","14",38074,"Dro","POINT (10.914024951216987 45.9606100778729)","pharmacy","Mo-Fr 08:30-12:00, Mo-Sa 15:00-19:00, Sa 09:00-12:00",10.914024951217,45.9606100778729
NA,NA,NA,NA,NA,"POINT (10.897505561166497 46.07314643188985)","doctors",NA,10.8975055611665,46.0731464318899
"Odontoiatria Trentina","Via Della Palanca","17",38050,"Scurelle","POINT (11.505150961178174 46.06373623683501)","dentist",NA,11.5051509611782,46.063736236835
"Tecnodent Servizi","Via Galileo Galilei","24",38122,"Trento","POINT (11.125502296122477 46.06788142323043)","dentist",NA,11.1255022961225,46.0678814232304
"Apss Poliambulatorio Di Levico Terme",NA,NA,NA,NA,"POINT (11.304104224219856 46.00953264830673)","hospital",NA,11.3041042242199,46.0095326483067
"Farmacia Alla Madonna","Via Giannantonio Manci","42",38122,"Trento","POINT (11.123074477868272 46.06980683020842)","pharmacy","Mo-Sa 08:30-12:30,15:00-19:00",11.1230744778683,46.0698068302084
"A.S.L.",NA,NA,NA,NA,"POLYGON ((11.244200522438433 46.06298597268196, 11.244663119674556 46.063214631000534, 11.244885575384785 46.06299795880349, 11.245168548435942 46.062722278008124, 11.244722798825165 46.062501833954656, 11.24469614437308 46.06248875818571, 11.244431276232774 46.062746753165385, 11.2448105573514 46.06293425633936, 11.244792787716648 46.06295152305992, 11.244734030575415 46.06292243785589, 11.24463202281379 46.06302184722753, 11.244321389482195 46.0628682907614, 11.244200522438433 46.06298597268196), (11.244825644777109 46.06277768238809, 11.244872918710996 46.062733090663215, 11.245004346952754 46.062800062069556, 11.244957156837899 46.06284465379446, 11.244825644777109 46.06277768238809))","hospital",NA,NA,NA
"Ambulatorio Medico Di Povo","Via Della Resistenza","61",38123,"Trento","POINT (11.158017039637059 46.0659461256067)","doctors",NA,11.1580170396371,46.0659461256067
"Studio Dentistico Alto Lago","Via G. Carducci","6 A",38066,"Riva Del Garda","POINT (10.846351476650796 45.88553278441452)","dentist","Mo-Th 08:00-19:00; Fr 08:00-14:30; Sa 08:00-12:00",10.8463514766508,45.8855327844145
"Igea","Via Milano","68",NA,"Trento","POINT (11.128048718306616 46.06083777471761)","pharmacy","Mo-Fr 08:30-12:30,15:00-19:00, Sa 08:30-12:30",11.1280487183066,46.0608377747176
NA,NA,NA,NA,NA,"POINT (10.975103292909182 45.819389342453604)",NA,NA,10.9751032929092,45.8193893424536
"Farmacia Vermiglio Succ. Tonale Ascanio Dr. Gianluca",NA,NA,NA,NA,"POINT (10.585146647149742 46.259256198297805)","pharmacy",NA,10.5851466471497,46.2592561982978
"Centro Servizi Tonale",NA,NA,NA,NA,"POINT (10.585406486148116 46.25937128182838)","hospital",NA,10.5854064861481,46.2593712818284
"Farmacia Santoni",NA,NA,NA,NA,"POINT (11.018441168896544 45.88438949282164)","pharmacy",NA,11.0184411688965,45.8843894928216
NA,NA,NA,NA,NA,"POINT (11.03554712453112 46.36790024793808)","doctors",NA,11.0355471245311,46.3679002479381
NA,"Via Brescia","82",38020,NA,"POINT (10.878091480855034 46.33107837965875)","pharmacy",NA,10.878091480855,46.3310783796587
"Studio Medico",NA,NA,NA,NA,"POINT (11.042558921811889 45.92650092873666)","doctors",NA,11.0425589218119,45.9265009287367
NA,"Piazza Dante","1",NA,"Malé","POINT (10.912168862578255 46.35209868407537)","pharmacy","Mo-Sa 08:30-12:30,15:30-19:30",10.9121688625783,46.3520986840754
"Farmacia Comunale N.6","Piazza Giannantonio Manci","5",38123,"Povo","POINT (11.154138481581583 46.06630579307188)","pharmacy",NA,11.1541384815816,46.0663057930719
"Farmacia Comunale",NA,NA,NA,NA,"POINT (11.042593455252955 45.92644577581379)","pharmacy",NA,11.042593455253,45.9264457758138
"Ambulatorio",NA,NA,NA,NA,"POINT (11.094517585213225 45.93317317511989)","doctors",NA,11.0945175852132,45.9331731751199
"Lisa Cosi",NA,NA,NA,NA,"POINT (10.88115213279886 46.054781933493786)",NA,NA,10.8811521327989,46.0547819334938
NA,NA,NA,NA,NA,"POINT (11.017099896750722 46.4052385252719)","pharmacy",NA,11.0170998967507,46.4052385252719
NA,NA,NA,38025,"Dimaro","POINT (10.874040590870322 46.326043118965345)","pharmacy",NA,10.8740405908703,46.3260431189653
"Comunale",NA,NA,NA,NA,"POINT (11.110089233471882 45.94149992537052)","pharmacy",NA,11.1100892334719,45.9414999253705
NA,"Via Roma","1/A",38010,"Ton","POINT (11.086702382513266 46.26456127245439)","pharmacy",NA,11.0867023825133,46.2645612724544
"Farmacia Giupponi","Via Giulio Catoni","69",38123,"Mattarello","POINT (11.127838835451143 46.006935599427436)","pharmacy","Mo-Fr 08:30-12:15, 15:30-19:00; Sa 08:30-12:15",11.1278388354511,46.0069355994274
"Ambulatorio Di Mattarello","Via Guido Poli","4",38123,"Mattarello","POINT (11.128202526229842 46.00601417681159)","doctors",NA,11.1282025262298,46.0060141768116
"Croce Rossa Italiana","Piaz Jan Batista Massar","7",38039,"Vigo Di Fassa","POINT (11.670787677627715 46.420365765024314)","clinic",NA,11.6707876776277,46.4203657650243
"Fisioterapia Trento","Via Della Cooperazione","64",NA,NA,"POINT (11.129847139451527 46.012952045706356)",NA,NA,11.1298471394515,46.0129520457064
"Parafarmacia",NA,NA,NA,NA,"POINT (11.770259745901342 46.477322976383164)","pharmacy",NA,11.7702597459013,46.4773229763832
"Poliambulatori Crosina",NA,NA,NA,NA,"POLYGON ((11.131281031627395 46.055622386924995, 11.131558221165363 46.055719197906654, 11.13167975876138 46.05565289705254, 11.131850246671917 46.0557962275968, 11.132385179732466 46.05547168030594, 11.132057028223215 46.055200944833416, 11.131312799040444 46.055200944833416, 11.131281031627395 46.055622386924995))","doctors",NA,NA,NA
"Santa Chiara","Largo Medaglie D'Oro","9",NA,NA,"POLYGON ((11.131484460417425 46.05639469548339, 11.131508181203401 46.05651195830879, 11.131967928592474 46.056958629928914, 11.132180326018897 46.05719055718973, 11.132590284903102 46.05758534482919, 11.132819781411996 46.057577633478274, 11.133048272092509 46.057669582956095, 11.133597035293292 46.05753136537277, 11.133810690005163 46.05748166068693, 11.133945135732063 46.05744067318042, 11.134121239517754 46.05737889855402, 11.13426574352846 46.05731351970928, 11.13440463166404 46.05723841785684, 11.13452927056423 46.05715535319641, 11.134739321057765 46.05698561965713, 11.134982144792701 46.05660977511883, 11.135071831156665 46.05623376294247, 11.135093288828784 46.055869736887644, 11.135097144504243 46.05565482489027, 11.135064371262843 46.05555709189926, 11.134947024618413 46.05535416602345, 11.134831270535585 46.05524386017768, 11.134681318287818 46.05515341944243, 11.134524157603295 46.055080580703844, 11.134368589480403 46.055026433609356, 11.134249817912433 46.05500371865176, 11.134135824029272 46.05498603283607, 11.133943459351428 46.05497622600933, 11.133644560684274 46.055007322870125, 11.133241055865511 46.05514738447215, 11.131541038263862 46.0562285661625, 11.131484460417425 46.05639469548339))","hospital",NA,NA,NA
"Farmacia Comunale Cognola","Piazza Dell'Argentario","10",38121,"Cognola","POINT (11.14198807474125 46.07673254534362)","pharmacy",NA,11.1419880747412,46.0767325453436
NA,NA,NA,NA,NA,"POINT (11.182053823367738 46.08985692933271)","pharmacy",NA,11.1820538233677,46.0898569293327
NA,NA,NA,NA,NA,"POINT (11.410228841404233 46.05310588813521)","doctors",NA,11.4102288414042,46.0531058881352
"Farmacia Kamal",NA,NA,NA,NA,"POINT (11.41040611865634 46.052978567026)","pharmacy",NA,11.4104061186563,46.052978567026
NA,NA,NA,NA,NA,"POINT (10.864337532118583 45.91988953497051)","doctors",NA,10.8643375321186,45.9198895349705
"Ambulatori Medici","Via Aeroporto","1/1",38121,"Trento","POINT (11.111453639670458 46.108100476865985)","doctors",NA,11.1114536396705,46.108100476866
NA,NA,NA,NA,NA,"POINT (11.552951530053178 46.04458719230189)","doctors",NA,11.5529515300532,46.0445871923019
NA,NA,NA,NA,NA,"POINT (10.999380218165783 46.0791098207217)","doctors",NA,10.9993802181658,46.0791098207217
"Farmacia Ottaviani",NA,NA,NA,NA,"POINT (10.956578029610228 45.81725799211466)","pharmacy",NA,10.9565780296102,45.8172579921147
"Centro Di Protonterapia","Via Al Desert","14",38122,"Trento","POLYGON ((11.11482844534521 46.04959898366644, 11.114910755634384 46.04980048461874, 11.115212587967648 46.049743320039084, 11.115209570482506 46.049736027783325, 11.115273272946638 46.049723790204695, 11.115269836366338 46.04971565975862, 11.115333371192378 46.04970241635161, 11.115339992895883 46.04972077271955, 11.115451639846157 46.04969864449518, 11.115441330105256 46.04967266059532, 11.115811558768428 46.04959889984741, 11.115861179635232 46.04971716850119, 11.11597986738417 46.0496923580678, 11.11584877441851 46.04936814605304, 11.11579554933337 46.04923403560227, 11.11570066618944 46.048995235180854, 11.115660181597121 46.04889481998083, 11.115587175220469 46.04890881775913, 11.115084428668126 46.049007556578516, 11.115119884118542 46.04909347108605, 11.115156848311557 46.0490859273732, 11.115234297096862 46.04927326290911, 11.115235386744274 46.049275945118126, 11.115030449211702 46.049315172425, 11.115021732032403 46.04929513967639, 11.11485434542601 46.04932942166039, 11.114955598816351 46.04957383795693, 11.11482844534521 46.04959898366644))","hospital",NA,NA,NA
NA,NA,NA,NA,NA,"POINT (11.242990427077245 46.06230351812556)","pharmacy",NA,11.2429904270772,46.0623035181256
NA,NA,NA,NA,NA,"POINT (11.120960561887927 46.39520572244933)","doctors",NA,11.1209605618879,46.3952057224493
"Farmacia San Giovanni","Strada Neva","24",38036,NA,"POINT (11.675411638332406 46.42006007701556)","pharmacy","Mo-Sa 08:30-12:30, 15:30-19:30; Su 09:00-12:00, 16:00-19:00",11.6754116383324,46.4200600770156
"Farmacia Trintinaglia",NA,NA,NA,NA,"POINT (11.633961618396825 46.01640086358614)","pharmacy",NA,11.6339616183968,46.0164008635861
NA,NA,NA,NA,NA,"POLYGON ((11.6726444368187 45.989228996611445, 11.672676371869812 45.989238719619124, 11.672646783751588 45.98928549063885, 11.672788186458149 45.989328825078246, 11.672880387393036 45.989183147601096, 11.672706965816388 45.989129838696925, 11.6726444368187 45.989228996611445))","doctors",NA,NA,NA
"Farmacia Malfatti",NA,NA,NA,NA,"POINT (11.194990536544793 46.00434492079458)","pharmacy",NA,11.1949905365448,46.0043449207946
NA,"Plótzer - Maso Plozzeri","8",38050,"Fierozzo - Vlarotz","POINT (11.310368858651742 46.10021712929321)","doctors",NA,11.3103688586517,46.1002171292932
NA,"Maso Ronca",NA,38050,"Fierozzo - Vlarotz","POINT (11.318238376084253 46.1111117594001)","doctors",NA,11.3182383760843,46.1111117594001
"Ambulatorio",NA,NA,NA,NA,"POINT (11.715351826049385 46.46210252986748)","doctors",NA,11.7153518260494,46.4621025298675
NA,NA,NA,NA,NA,"POINT (11.034975227277585 46.28703944128995)","clinic",NA,11.0349752272776,46.2870394412899
"Farmacia",NA,NA,NA,NA,"POINT (10.908294327836302 46.07721727080414)","pharmacy",NA,10.9082943278363,46.0772172708041
"Ambulatorio",NA,NA,NA,NA,"POINT (11.045637427209442 46.097610692682395)","doctors",NA,11.0456374272094,46.0976106926824
"Ambulatorio","Piazza Di San Lorenzo","2",NA,"Ciago","POINT (11.004365857992411 46.090139148012554)","doctors","Tu 14:00-14:30; PH closed",11.0043658579924,46.0901391480126
NA,NA,NA,NA,NA,"POINT (10.721024170752997 45.89557455587348)","hospital",NA,10.721024170753,45.8955745558735
"Studio Associato Di Genetica Medica E Fisioterapia",NA,NA,NA,NA,"POINT (10.850623481241257 45.89343473981231)","doctors",NA,10.8506234812413,45.8934347398123
"Farmacia Molina Di Ledro","Via Maffei","3",38067,"Molina Di Ledro","POINT (10.775855731467061 45.87187464083132)","pharmacy","Mo-Sa 08:00-12:00 15:00-19:00",10.7758557314671,45.8718746408313
NA,NA,NA,NA,NA,"POINT (10.600861793590724 45.89024274344578)","pharmacy",NA,10.6008617935907,45.8902427434458
NA,NA,NA,NA,NA,"POINT (11.831559453656325 46.178005297875984)","doctors",NA,11.8315594536563,46.178005297876
"Ambulatorio",NA,NA,NA,NA,"POINT (11.024880146914427 45.91176545913859)","doctors",NA,11.0248801469144,45.9117654591386
"Dott. Grossi",NA,NA,NA,NA,"POINT (11.040388427985107 45.89278774070635)","dentist",NA,11.0403884279851,45.8927877407064
"Farmacia Fusi",NA,NA,NA,NA,"POINT (10.577921195157074 45.848451999146164)","pharmacy",NA,10.5779211951571,45.8484519991462
NA,NA,NA,NA,NA,"POINT (10.540448220639234 45.80835364491634)","pharmacy",NA,10.5404482206392,45.8083536449163
"Soave","Piazza Delle Erbe","17",38068,"Rovereto","POINT (11.044461697651315 45.88836637060135)","pharmacy",NA,11.0444616976513,45.8883663706013
NA,NA,NA,NA,NA,"POINT (10.549395567000829 45.8420725326408)","doctors",NA,10.5493955670008,45.8420725326408
"Farmacia Comunale","Viale Trento","33/2",38068,"Rovereto","POINT (11.041902534974355 45.901378520906945)","pharmacy",NA,11.0419025349744,45.9013785209069
NA,"Via Delle Scuole","32",38068,"Rovereto","POINT (11.042206630421504 45.88946364554579)","pharmacy",NA,11.0422066304215,45.8894636455458
"Dr. Mauro Pierini",NA,NA,NA,NA,"POINT (11.43582717369614 46.281945926369474)","doctors","Mo-Fr 16:00-18:00; We 08:30-10:00",11.4358271736961,46.2819459263695
NA,NA,NA,NA,NA,"POINT (11.303985955566077 46.01020278146544)","dentist",NA,11.3039859555661,46.0102027814654
"Pavani",NA,NA,NA,NA,"POINT (11.027910037273585 45.885845261764814)","pharmacy",NA,11.0279100372736,45.8858452617648
"Farmacia De Maffei","Via Alcide Degasperi","30",38023,"Cles","POINT (11.033040516387075 46.36306565000663)","pharmacy","Mo-Sa 08:15-19:15",11.0330405163871,46.3630656500066
"Chinaglia","Via Giacomo Matteotti","62",38069,"Nago-Torbole","POINT (10.876517359439049 45.87068793098004)","pharmacy","Mo-Sa 08:00-19:00",10.876517359439,45.87068793098
"Dott. Elena Accorsi","Viale Degli Oleandri","15",38066,"Riva Del Garda","POINT (10.844214678074792 45.89973767954169)","pharmacy",NA,10.8442146780748,45.8997376795417
"Farmacia Dott.Ssa Venezian","Via Luigi Negrelli","20/D",38062,"Arco","POINT (10.86532458503632 45.918685558398664)","pharmacy",NA,10.8653245850363,45.9186855583987
"Farmacia De Probizer","Via Venticinque Aprile","46",NA,"Villa Lagarina","POINT (11.032627959112887 45.91515325676326)","pharmacy",NA,11.0326279591129,45.9151532567633
NA,NA,NA,NA,NA,"POINT (11.08615537951215 46.265103833046794)","doctors",NA,11.0861553795121,46.2651038330468
"Centro Anziani",NA,NA,NA,NA,"POINT (11.197376696740207 46.00487013084742)","hospital",NA,11.1973766967402,46.0048701308474
"Sanit Service S.R.L.",NA,NA,NA,NA,"POINT (11.128496898669283 46.06697533949739)","pharmacy",NA,11.1284968986693,46.0669753394974
"Farmacia","Via Molini","1",38030,"Verla Di Giovo","POLYGON ((11.151141364463825 46.15741238670222, 11.151292573997068 46.15742361845247, 11.151311349460173 46.157303170503866, 11.151370358058529 46.157307529093515, 11.151388295331316 46.1571928646581, 11.151178077199717 46.15717719049917, 11.151141364463825 46.15741238670222))","pharmacy",NA,NA,NA
"Farmacia Redi","Via Nas","3",38062,"Arco","POINT (10.879882693563218 45.91752357516171)","pharmacy","Mo-Fr 08:15-19:30; Sa 08:30-19:00",10.8798826935632,45.9175235751617
NA,NA,NA,NA,NA,"POINT (11.030359229380906 46.23660946938941)","clinic",NA,11.0303592293809,46.2366094693894
"Stefano Ceschini",NA,NA,NA,NA,"POINT (10.953204229763855 46.04592008254454)",NA,NA,10.9532042297639,46.0459200825445
"Campagnola","Via Alcide De Gasperi","19",38017,"Mezzolombardo","POINT (11.091384848902123 46.2129566606431)","pharmacy",NA,11.0913848489021,46.2129566606431
"Ecospes","Via Vittime Delle Foibe","30",NA,NA,"POINT (11.114964148357586 46.08588617034232)","clinic",NA,11.1149641483576,46.0858861703423
"Studio Kaswalder",NA,NA,NA,NA,"POINT (11.196789460603867 46.00494623852825)","dentist",NA,11.1967894606039,46.0049462385282
"Farmacia Ai Solteri","Via Renato Lunelli","40",38121,"Trento","POINT (11.11763495798479 46.09238583333919)","pharmacy",NA,11.1176349579848,46.0923858333392
"Farmacia Comunale",NA,NA,NA,NA,"POINT (10.900850946361118 45.91112189661294)","pharmacy",NA,10.9008509463611,45.9111218966129
"Farmacia Bettinazzi - R. & T. Pharma Snc",NA,NA,38062,NA,"POINT (10.885684898397017 45.91644943427002)","pharmacy",NA,10.885684898397,45.91644943427
"Farmacia Fontana","Piazza Della Libertà","15",38121,NA,"POINT (11.111766787573032 46.10867907964206)","pharmacy","Mo-Sa 8:00-12:30,15:00-19:30",11.111766787573,46.1086790796421
"Bauer Livio","Via Rovero","6",38062,"Arco","POINT (10.901344137543845 45.91347268517697)","dentist",NA,10.9013441375438,45.913472685177
"Valore Salute",NA,NA,NA,NA,"POINT (10.952492270908294 46.04567516333381)","pharmacy","Mo-Sa 08:30-12:30,15:00-19:00; PH closed",10.9524922709083,46.0456751633338
NA,NA,NA,NA,NA,"POINT (11.048056444465317 46.2175232891301)","pharmacy",NA,11.0480564444653,46.2175232891301
"Farmacia Boni",NA,NA,NA,NA,"POINT (10.724451279503569 46.03336164465773)","pharmacy",NA,10.7244512795036,46.0333616446577
"Ambulatori Medici",NA,NA,NA,NA,"POINT (11.242751459017796 46.003753074611495)","doctors",NA,11.2427514590178,46.0037530746115
"Franch",NA,NA,NA,NA,"POINT (11.035588447313756 46.36600543490667)","dentist",NA,11.0355884473138,46.3660054349067
NA,NA,NA,NA,NA,"POINT (11.073456963842347 45.869392926939724)","pharmacy",NA,11.0734569638423,45.8693929269397
"Cobelli","Via Giuseppe Mazzini","8",38068,"Rovereto","POINT (11.043239280892465 45.89009949672055)","pharmacy",NA,11.0432392808925,45.8900994967206
"Sanità",NA,NA,NA,NA,"POINT (11.034692338045488 46.36555214158304)","pharmacy",NA,11.0346923380455,46.365552141583
"Farmacia Bifarini","Via Trento","7",38023,"Cles","POINT (11.036079291563595 46.363339067688145)","pharmacy","Mo-Sa 08:30-19:30; Su, PH off",11.0360792915636,46.3633390676881
"Studio Dentistico Dott. Valentinotti","Via Trento","68",38023,"Cles","POINT (11.036748670351045 46.36195915496867)","dentist",NA,11.036748670351,46.3619591549687
"Centro Traumatologico Dr.Lapira","Strada Dolomites","39",38036,"Pozza Di Fassa","POINT (11.682487221896338 46.42574937761361)","doctors",NA,11.6824872218963,46.4257493776136
NA,NA,NA,NA,NA,"POLYGON ((10.758262787258104 46.310918729060006, 10.759329552075002 46.310953933053355, 10.759311782440278 46.310527042724715, 10.759409431612227 46.310521175392495, 10.759456286450984 46.31048002024792, 10.759371293952796 46.31019972940578, 10.759376239275667 46.310082047485224, 10.75926928619117 46.31013225508525, 10.758716667314957 46.31036418234606, 10.758449536060823 46.310476751305686, 10.75842388743709 46.310486055218206, 10.758296733965949 46.31054003467463, 10.758385917415723 46.3106897354653, 10.758394466956958 46.310771961935444, 10.758368985971316 46.310851254739475, 10.758262787258104 46.310918729060006))","clinic",NA,NA,NA
"Centro Sanitario Trento","Via Giovanni Battista Trener","2",38121,"Trento","POINT (11.11545717190225 46.093160321192414)","clinic","Mo-Sa 08:00-18:00+",11.1154571719022,46.0931603211924
"Roberto Riccamboni",NA,NA,NA,NA,"POINT (11.243557127550815 46.126177056888054)","doctors",NA,11.2435571275508,46.1261770568881
"Diètnatural","Via Ezio Maccani","13",38121,"Trento","POINT (11.11657389286205 46.08053952194598)","clinic",NA,11.116573892862,46.080539521946
"Dott. Aiko U. Borchert","Viale Rovereto","122",38066,"Riva Del Garda","POINT (10.856587959720486 45.87938734064576)","doctors",NA,10.8565879597205,45.8793873406458
NA,NA,NA,NA,NA,"POINT (11.220856167728897 46.17492687629746)","dentist",NA,11.2208561677289,46.1749268762975
"Centro Medico Salute","Viale Alcide De Gasperi","65",38023,"Cles","POINT (11.030645722831366 46.35862609117174)","clinic",NA,11.0306457228314,46.3586260911717
"Ambulatorio Medico",NA,NA,NA,NA,"POINT (11.232353875769093 45.96773243245653)","doctors",NA,11.2323538757691,45.9677324324565
"Farmacia Comunale Via Benacense",NA,NA,NA,NA,"POINT (11.03348819383558 45.87837195689531)","pharmacy",NA,11.0334881938356,45.8783719568953
NA,NA,NA,NA,NA,"POLYGON ((10.980136541945825 45.977737491179596, 10.980247099248686 45.977740843940865, 10.980249530000606 45.97766473626007, 10.980141319630633 45.97766247314618, 10.980136541945825 45.977737491179596))","doctors",NA,NA,NA
"Studio Dott. Martini",NA,NA,NA,NA,"POINT (10.867213279278388 45.91891756947848)","dentist",NA,10.8672132792784,45.9189175694785
"Farmacia Vinotti",NA,NA,NA,NA,"POINT (11.065538328457222 46.320895959864544)","pharmacy","Mo-Sa 08:30-12:15; Mo-Sa 15:00-19:00",11.0655383284572,46.3208959598645
"Farmacia Girardi","Via E. Colpi","181",38064,"Folgaria","POLYGON ((11.173539737581194 45.9150133627993, 11.173660436986893 45.91515904027645, 11.173830254345177 45.91509408052687, 11.173714164986222 45.91494387682201, 11.173539737581194 45.9150133627993))","pharmacy","PH,Su 10:00-12:00; Mo-Sa 08:30-12:30,15:45-19:15",NA,NA
"Gallina","Via Nazionale","48",NA,"Pellizzano","POINT (10.75724857697412 46.31132516754491)","pharmacy",NA,10.7572485769741,46.3113251675449
"Ambulatorio Barberi/Ricci/La Delfa",NA,NA,NA,NA,"POINT (10.998830784412746 46.07773393131575)","doctors",NA,10.9988307844127,46.0777339313157
"Darma Il Farmastore","Via Tamarisi",NA,38057,"Pergine Valsugana","POINT (11.223444918524024 46.06803598552497)","pharmacy","Mo 14:30-20:00; Tu-Su 09:00-20:00",11.223444918524,46.068035985525
"Farmacia Gagliardi","Via De Gasperi","1",NA,NA,"POINT (10.84234827969513 46.004623367617995)","pharmacy",NA,10.8423482796951,46.004623367618
"Farmacia Comunale Pio X","Via San Pio X",NA,NA,NA,"POINT (11.120621178628426 46.053501765422084)","pharmacy",NA,11.1206211786284,46.0535017654221
"Farmacia San Michele","Via Brennero","20/A",38098,NA,"POINT (11.1299107580966 46.19070295917453)","pharmacy","Mo-Fr 08:30-12:00,15:00-19:00; Sa 08:30-12:00",11.1299107580966,46.1907029591745
NA,NA,NA,NA,NA,"POLYGON ((11.119474785731398 46.307497152365556, 11.119563969181144 46.30750922230612, 11.119583079920375 46.30744199944266, 11.11949389647063 46.30742984568306, 11.119474785731398 46.307497152365556))","doctors",NA,NA,NA
"Salmoiraghi & Viganō",NA,NA,NA,NA,"POINT (10.853399232296198 45.88285367670315)",NA,NA,10.8533992322962,45.8828536767031
"Lifebrain Centro Analisi Adige",NA,NA,NA,NA,"POINT (11.032416986610002 45.91407844531932)",NA,NA,11.03241698661,45.9140784453193
NA,NA,NA,NA,NA,"POINT (11.023606768184322 45.883422137376385)",NA,NA,11.0236067681843,45.8834221373764
"Centro Vaccinale Covid / Coronavirus Drive-Through","Via Aldo Moro",NA,NA,"Arco","POINT (10.87295555350451 45.902130545259666)","clinic","Mo-Fr 09:00-12:00 13:00-16:00",10.8729555535045,45.9021305452597
"Dispensario Farmaceutico Farmacia Gagliardi","Via Roma","7",NA,"Bleggio Superiore","POINT (10.839264074603392 46.02464513590954)","pharmacy",NA,10.8392640746034,46.0246451359095
"Studio Odontoiatrico Graffer Sciacca",NA,NA,NA,NA,"POINT (11.123162571670633 46.067676820973986)","dentist",NA,11.1231625716706,46.067676820974
"Farmacia Bailo","Piazzale Dante Alighieri","3A",38051,"Borgo Valsugana","POINT (11.454878652876317 46.053703266374384)","pharmacy","Mo-Sa 08:30-12:15,15:30-19:00; PH closed",11.4548786528763,46.0537032663744
"Dottor Mauro Pierini",NA,NA,NA,NA,"POINT (11.41728263201989 46.272565654708956)","doctors","Mo-Fr 09:30-11:30; We 10:30-12:00",11.4172826320199,46.272565654709
NA,NA,NA,NA,NA,"POINT (11.829658354197534 46.17564763615135)","pharmacy",NA,11.8296583541975,46.1756476361514
"Blu Lab","Via Nazionale","92",38123,"Mattarello","POINT (11.126386167812143 46.00592138914345)","dentist",NA,11.1263861678121,46.0059213891435
NA,NA,NA,NA,NA,"POINT (10.94194171792671 46.01677084079222)","pharmacy",NA,10.9419417179267,46.0167708407922
"Tavernini Annamaria","Via Arco","14",38074,"Ceniga","POINT (10.9005107249113 45.95240796652246)","doctors",NA,10.9005107249113,45.9524079665225
NA,NA,NA,NA,NA,"POINT (11.801842170325926 46.26207452942086)","pharmacy",NA,11.8018421703259,46.2620745294209
NA,NA,NA,NA,NA,"POINT (11.113195231511838 46.165079732630176)","clinic",NA,11.1131952315118,46.1650797326302
"Alp Trauma Clinic",NA,NA,NA,NA,"POINT (10.82621948633252 46.22872402634087)","clinic","PH,Mo-Su 09:00-19:00+",10.8262194863325,46.2287240263409
"Alp Trauma Clinic",NA,NA,NA,NA,"POINT (10.583841836282716 46.259188723977246)","clinic",NA,10.5838418362827,46.2591887239772
"Farmacia Ladina","Strèda Dolomites","77",NA,NA,"POINT (11.768712362756474 46.47763872267569)","pharmacy",NA,11.7687123627565,46.4776387226757
"Dott. Scialpi Diego","Via Antonio Rosmini","2/B",38074,"Ceniga","POINT (10.902600417191508 45.94993547272435)","doctors",NA,10.9026004171915,45.9499354727243
"Ambulatorio Dott. Scialpi E Bombardelli","Via Cesare Battisti","9",38074,"Dro","POINT (10.909384645801111 45.962650233105336)","doctors",NA,10.9093846458011,45.9626502331053
"Step Studio Dentistico Elena Prandi","Ss45Bis","5/A",38074,"Dro","POINT (10.913078299072566 45.95966895778457)","dentist",NA,10.9130782990726,45.9596689577846
NA,NA,NA,NA,NA,"POINT (10.85997357805033 46.30364885298053)","pharmacy",NA,10.8599735780503,46.3036488529805
"Ambulatorio Medico",NA,NA,NA,NA,"POINT (10.737511625752404 46.03180277830552)","doctors",NA,10.7375116257524,46.0318027783055
"Pizzo",NA,NA,NA,NA,"POINT (11.23739324359508 46.06703895814246)","pharmacy",NA,11.2373932435951,46.0670389581425
NA,NA,NA,NA,NA,"POINT (11.147090390660054 46.049480798831695)","doctors",NA,11.1470903906601,46.0494807988317
"Studio Scardanzan",NA,NA,NA,NA,"POINT (11.687804617450581 46.43123281866974)","dentist",NA,11.6878046174506,46.4312328186697
"Farmacia Dottoressa Catanzaro Maria Grazia",NA,NA,NA,NA,"POINT (11.069537921194552 46.177813687569454)","pharmacy",NA,11.0695379211946,46.1778136875695
"Drive Through Vaccinale Anticovid - Trento Sud","Viale Verona","200",38123,NA,"POINT (11.129838925186391 46.04549662879623)","clinic",NA,11.1298389251864,46.0454966287962
NA,NA,NA,NA,NA,"POINT (10.858561646460743 45.887457939935416)","pharmacy",NA,10.8585616464607,45.8874579399354
NA,NA,NA,NA,NA,"POINT (11.101730380532075 46.20890853668644)","pharmacy",NA,11.1017303805321,46.2089085366864
"Ambulatorio Medico","Strada De Meida","49",38036,"Pozza Di Fassa","POINT (11.69006303744166 46.43012816765051)","doctors",NA,11.6900630374417,46.4301281676505
"Studio Dentistico Grosselli Dr. Bruno","Strada Piccola","74",38069,"Nago-Torbole","POINT (10.879818655822987 45.87556988666441)","dentist",NA,10.879818655823,45.8755698866644
"Dental Progress Di Diquigiovanni Paolo","Via Giovanni Prati","8",38062,"Arco","POINT (10.881836347554895 45.91669862825137)","dentist",NA,10.8818363475549,45.9166986282514
NA,NA,NA,NA,NA,"POINT (11.04139626802268 45.88332784096568)",NA,NA,11.0413962680227,45.8833278409657
"Progetto Sorriso- Centro Medico E Dentale","Viale Trento","4",38052,"Caldonazzo","POINT (11.254882419842744 45.995728575789286)","dentist",NA,11.2548824198427,45.9957285757893
"Onderkova Janka","Via San Nazzaro","56/A",38066,"Riva Del Garda","POINT (10.856093930347441 45.89980674642385)","dentist",NA,10.8560939303474,45.8998067464238
"Farmacia Comunale",NA,NA,NA,NA,"POINT (11.217736171910616 46.08449594788195)","pharmacy",NA,11.2177361719106,46.0844959478819
NA,NA,NA,NA,NA,"POINT (11.167242162269844 45.91707757409384)","doctors",NA,11.1672421622698,45.9170775740938
NA,NA,NA,NA,NA,"POINT (11.113629749372365 46.10731458962442)","doctors",NA,11.1136297493724,46.1073145896244
NA,NA,NA,NA,NA,"POINT (11.058860382379862 46.070995719354556)","doctors",NA,11.0588603823799,46.0709957193546
"Farmacia Bretta Dr. Giorgio&Co",NA,NA,NA,NA,"POINT (10.825377859434866 46.23203395608505)","pharmacy","Mo-Sa 08:30-12:30,15:30-19:30; PH,Su 09:30-12:00,17:00-19:00",10.8253778594349,46.232033956085
"Farmacia Di Carano",NA,NA,NA,NA,"POINT (11.444937799531573 46.28746934910373)","pharmacy",NA,11.4449377995316,46.2874693491037
"Centro Odontoiatrico",NA,NA,NA,NA,"POINT (10.88557752621736 46.33193668654374)","dentist",NA,10.8855775262174,46.3319366865437
NA,NA,NA,NA,NA,"POINT (11.070085678566926 45.92916587103164)","pharmacy",NA,11.0700856785669,45.9291658710316
NA,NA,NA,NA,NA,"POINT (11.071541028414941 45.92883755188436)","doctors",NA,11.0715410284149,45.9288375518844
"Farmacia Brancaleoni","Via Trento","11/B",38097,"Terre D'Adige","POINT (11.097483018736966 46.15223706440676)","pharmacy",NA,11.097483018737,46.1522370644068
"Farmacia De Gerloni",NA,NA,NA,NA,"POINT (11.058552766533381 46.073148946460805)","pharmacy",NA,11.0585527665334,46.0731489464608
"Farmacia",NA,NA,NA,NA,"POINT (11.806240574016215 46.15427545943953)","pharmacy",NA,11.8062405740162,46.1542754594395
"La Farmacia Di Roncafort","Via Luigi Caneppele","31",NA,NA,"POINT (11.102082420465365 46.0984635513303)","pharmacy","Mo, We, Fr 08:00-12:30, 15:00-19:15; Tu, Th 08:00-12:30, 14:00-19:15; Sa 08:30-12:30, 15:00-19:00",11.1020824204654,46.0984635513303
"Farmacia Comunale San Rocco",NA,NA,NA,NA,"POINT (11.063356435242127 45.91665294687908)","pharmacy",NA,11.0633564352421,45.9166529468791
"Farmacia Comunale",NA,"127",38020,"Rabbi","POINT (10.846183084216051 46.400881947278435)","pharmacy",NA,10.8461830842161,46.4008819472784
NA,NA,NA,NA,NA,"POINT (10.809960941108812 46.30146226589966)","hospital",NA,10.8099609411088,46.3014622658997
NA,NA,NA,NA,NA,"POINT (11.25848864986412 46.187474752986276)","pharmacy",NA,11.2584886498641,46.1874747529863
"Farmacia Gallina",NA,NA,NA,NA,"POINT (10.810507273557647 46.30215712567275)","pharmacy",NA,10.8105072735576,46.3021571256727
"Ambulatorio Medico Associato Sermeda",NA,NA,NA,NA,"POINT (11.181725252763357 46.08866736963432)","doctors",NA,11.1817252527634,46.0886673696343
"Studio Medici San Martino",NA,NA,NA,NA,"POINT (11.125814354377638 46.07389761805226)","doctors",NA,11.1258143543776,46.0738976180523
"Farmacia Ottaviani",NA,NA,NA,NA,"POINT (10.956578029610228 45.81725799211466)","pharmacy","Mo-Sa 08:30-12:00,15:30-19:00",10.9565780296102,45.8172579921147
"Guardia Medica E Punto Prelievi","Piazzale Paganella","3",38010,"Andalo","POINT (11.003223236951811 46.16376997644028)","hospital",NA,11.0032232369518,46.1637699764403
"Casa Della Salute Raphael",NA,NA,NA,NA,"POINT (11.409452425713283 46.05024782679109)","hospital",NA,11.4094524257133,46.0502478267911
"Farmacia Bolego Villazzano",NA,NA,NA,NA,"POLYGON ((11.143490363247054 46.04965363367512, 11.143508971072094 46.0497478462668, 11.1438412297139 46.049713983377984, 11.143826142288162 46.049640222630046, 11.143698485902831 46.049653382218025, 11.143692786208675 46.04963519348814, 11.143490363247054 46.04965363367512))","pharmacy",NA,NA,NA
"Farmacia Alla Madonna","Via Giannantonio Manci","42",38122,"Trento","POINT (11.123074477868272 46.06980683020842)","pharmacy","Mo-Sa 08:30-12:30,15:00-19:00",11.1230744778683,46.0698068302084
"Centro Servizi Sanitari “Il Rovere”","Via Salisburgo","15",NA,NA,"POINT (11.034257652546898 45.915113861818355)","doctors","Mo-Fr 08:00-12:00,15:00-19:00",11.0342576525469,45.9151138618184
"Sanit Service S.R.L.",NA,NA,NA,NA,"POINT (11.128496898669283 46.06697533949739)","pharmacy",NA,11.1284968986693,46.0669753394974
"Apss Villa Igea",NA,NA,NA,NA,"POLYGON ((11.127548318687133 46.061812925332816, 11.127802625629442 46.0618205528647, 11.127795333373655 46.061936558404625, 11.128145948383406 46.06194703578359, 11.128144523459866 46.06196849345571, 11.128393298346055 46.06197595334953, 11.12839455563153 46.06195407658225, 11.128490696060936 46.0619568426103, 11.128494970831554 46.06188685371882, 11.128615670237252 46.06189045793718, 11.128624722692678 46.06174419372681, 11.128371673035872 46.061736566194895, 11.128367565903318 46.0618017774016, 11.1280307810338 46.06179163529876, 11.128040252584412 46.06163824647069, 11.128214344713314 46.06164344325066, 11.12821074049495 46.06170245184899, 11.128388772118342 46.06170781626702, 11.128397070202482 46.061574795463656, 11.128159778523667 46.06156767084596, 11.128162963646872 46.061515619227265, 11.127567932340583 46.06149784959254, 11.127548318687133 46.061812925332816))","hospital",NA,NA,NA
"Farmacia","Piazza Guglielmo Marconi","24B",38018,"Molveno","POINT (10.966234652618368 46.14256191739261)","pharmacy",NA,10.9662346526184,46.1425619173926
"Ambulatorio Medico Di Povo","Via Della Resistenza","61",38123,"Trento","POINT (11.158017039637059 46.0659461256067)","doctors",NA,11.1580170396371,46.0659461256067
NA,NA,NA,NA,NA,"POINT (11.829806546245635 46.175641852638165)","pharmacy",NA,11.8298065462456,46.1756418526382
"Odontoiatria Trentina","Via Della Palanca","17",38050,"Scurelle","POINT (11.505150961178174 46.06373623683501)","dentist",NA,11.5051509611782,46.063736236835
"Studio Dentistico Alto Lago","Via G. Carducci","6 A",38066,"Riva Del Garda","POINT (10.846351476650796 45.88553278441452)","dentist","Mo-Th 08:00-19:00; Fr 08:00-14:30; Sa 08:00-12:00",10.8463514766508,45.8855327844145
"Poliambulatori",NA,NA,NA,NA,"POINT (11.304080168157753 46.00958386173511)","clinic",NA,11.3040801681578,46.0095838617351
"Onderkova Janka","Via San Nazzaro","56A",38066,"Riva Del Garda","POINT (10.856093930347441 45.89980674642385)","dentist",NA,10.8560939303474,45.8998067464238
"Step Studio Dentistico Elena Prandi","Ss45Bis","5A",38074,"Dro","POINT (10.913078299072566 45.95966895778457)","dentist",NA,10.9130782990726,45.9596689577846
"Farmacia Comunale","Via Brescia","19A",38122,"Trento","POINT (11.112407416432575 46.070634794603905)","pharmacy","Mo-Fr 08:30-19:00; Sa 08:30-12:00",11.1124074164326,46.0706347946039
"Farmacia Brancaleoni","Via Trento","11B",38097,"Terre D'Adige","POINT (11.097483018736966 46.15223706440676)","pharmacy",NA,11.097483018737,46.1522370644068
"Dott. Scialpi Diego","Via Antonio Rosmini","2B",38074,"Ceniga","POINT (10.902600417191508 45.94993547272435)","doctors",NA,10.9026004171915,45.9499354727243
"Farmacia Margonari Dr. Ada",NA,"2B",38018,"Molveno","POINT (10.964739237273193 46.142849584309516)","pharmacy",NA,10.9647392372732,46.1428495843095
"Farmacia San Michele","Via Brennero","20A",38098,NA,"POINT (11.1299107580966 46.19070295917453)","pharmacy","Mo-Fr 08:30-12:00,15:00-19:00; Sa 08:30-12:00",11.1299107580966,46.1907029591745
"Farmacia Dott.Ssa Venezian","Via Luigi Negrelli","20D",38062,"Arco","POINT (10.86532458503632 45.918685558398664)","pharmacy",NA,10.8653245850363,45.9186855583987
"Alp Trauma Clinic","Viale Rovereto","13B",38066,"Riva Del Garda","POINT (10.85077175710839 45.88458219277561)","clinic",NA,10.8507717571084,45.8845821927756
"Remondini","Via Santa Caterina","4B",38062,"Arco","POINT (10.880506390978354 45.91697196211385)","dentist",NA,10.8805063909784,45.9169719621138
"Fisiolab Trento","Corso Iii Novembre","72A",NA,"Trento","POINT (11.124219194384693 46.06136558316044)",NA,NA,11.1242191943847,46.0613655831604
"Farmacia Grandi","Via Alessandro Manzoni","7A",38122,"Trento","POINT (11.125191578971851 46.073819833990825)","pharmacy","Mo-Fr 08:00-13:00,15:00-19:00; Sa 08:30-12:30",11.1251915789719,46.0738198339908
"Farmacia Delle Dolomiti","Via Ponte Lambin","27A",38010,"Andalo","POINT (11.00149421796516 46.163450542110354)","pharmacy",NA,11.0014942179652,46.1634505421104
NA,"Via Roma","1A",38010,"Ton","POINT (11.086702382513266 46.26456127245439)","pharmacy",NA,11.0867023825133,46.2645612724544
"Farmacia San Francesco","Via Giuseppe Giusti","22",38122,"Trento","POINT (11.11879325318435 46.0610397785841)","pharmacy",NA,11.1187932531844,46.0610397785841
"Farmacia Alberto Foletto","Via Nuova","4",38067,"Ledro","POINT (10.732260279595152 45.88855102392827)","pharmacy",NA,10.7322602795952,45.8885510239283
"Ospedale San Camillo",NA,NA,NA,NA,"POLYGON ((11.13155905935568 46.06487156561985, 11.13166852701113 46.06505085452875, 11.131838344369413 46.06522704213344, 11.13249875452044 46.064993354672964, 11.132401775900746 46.064906937251266, 11.132034648541747 46.06495395972806, 11.13198879953137 46.06488036661821, 11.132306557480689 46.06480576767996, 11.132277472276684 46.06474466360581, 11.131956277747065 46.06482881791368, 11.131926521990806 46.06478146016076, 11.13155905935568 46.06487156561985))","hospital",NA,NA,NA
"Parafarmacia Farmatrento","Largo Giosuè Carducci","43",38122,"Trento","POINT (11.125060653644283 46.068404286350415)","pharmacy",NA,11.1250606536443,46.0684042863504
"Farmacia Lamberto Gallo","Via Mantova","51",38122,"Trento","POINT (11.124188181342959 46.06741237192887)","pharmacy",NA,11.124188181343,46.0674123719289
"Casa Di Cura Villa Bianca",NA,NA,NA,NA,"POLYGON ((11.126471747043553 46.062537457043135, 11.126730161118388 46.062699227774374, 11.126976756709752 46.062503258878195, 11.126925375643282 46.06245397328752, 11.126543496134701 46.0624718267413, 11.126471747043553 46.062537457043135))","hospital",NA,NA,NA
"Progetto Salute",NA,NA,NA,NA,"POLYGON ((11.130300768051256 46.06228884979501, 11.130397327575821 46.06236336491423, 11.130472429428266 46.062296393507864, 11.130558260116743 46.06225163414493, 11.13044024292006 46.06218466273856, 11.130300768051256 46.06228884979501))","doctors",NA,NA,NA
"Centro Per I Servizi Sanitari",NA,NA,NA,NA,"POINT (11.130000528279595 46.04480495414634)","clinic",NA,11.1300005282796,46.0448049541463
"Apss Emergenza 118",NA,NA,NA,NA,"POLYGON ((11.130610144097403 46.05667842290583, 11.13178838822651 46.05763169675373, 11.132199772034255 46.05741309671899, 11.131594263349001 46.05681236571854, 11.131331490684516 46.05660885310948, 11.131196625862458 46.056563087918164, 11.131043320853394 46.05654573737857, 11.130932931188624 46.05655504129112, 11.130799826566204 46.05658496468544, 11.130610144097403 46.05667842290583))","doctors",NA,NA,NA
"La Perla",NA,NA,NA,NA,"POINT (11.461000124402005 46.291220669869034)","pharmacy",NA,11.461000124402,46.291220669869
NA,NA,NA,NA,NA,"POINT (11.25848864986412 46.187474752986276)",NA,NA,11.2584886498641,46.1874747529863
"Farmacia Girardi","Via Emilio Colpi","179",38064,NA,"POINT (11.173686253248661 45.91504647131683)","pharmacy","PH,Su 10:00-12:00; Mo-Sa 08:30-12:30,15:45-19:15",11.1736862532487,45.9150464713168
"Farmacia San Giorgio","Via Unione","82",NA,NA,"POINT (11.028174570137764 45.89416203755067)","pharmacy","Sep-Apr Mo-Sa 08:00-20:00; May-Aug Mo-Fr 08:00-20:00; May-Aug Sa 08:00-13:00",11.0281745701378,45.8941620375507
"Guardia Medica","Via Falcone E Borsellino","6",38067,"Ledro","POINT (10.721021153267856 45.89567773710155)","doctors",NA,10.7210211532679,45.8956777371016
"Studio Odontoiatrico Poli Dr. Poli Nicola","Via Giacomo Cis","79",38067,"Ledro","POINT (10.724168390271444 45.89374143364944)","dentist",NA,10.7241683902714,45.8937414336494
"Farmacia Chinaglia",NA,"2",38069,"Nago-Torbole","POINT (10.88895115842567 45.87834706264289)","pharmacy",NA,10.8889511584257,45.8783470626429
"Studio Dentistico Dott. Paolo Rella",NA,NA,NA,NA,"POINT (11.043109780488436 45.89235188174132)","dentist",NA,11.0431097804884,45.8923518817413
"Dispensario Farmaceutico Foletto",NA,NA,38067,"Ledro","POINT (10.686393499601309 45.89392055492024)","pharmacy","Mo 10:00-12:00; We 10:00-12:00; Fr 10:00-12:00;",10.6863934996013,45.8939205549202
NA,NA,NA,NA,NA,"POINT (10.843516968454622 45.906109518515166)","doctors",NA,10.8435169684546,45.9061095185152
"Farmacia Comunale San Donà",NA,NA,NA,NA,"POINT (11.140260648316229 46.07160893939073)","pharmacy","Mo-Fr 08:30-12:00,15:00-19:00; Sa 08:30-12:00",11.1402606483162,46.0716089393907
"Poliambulatorio",NA,NA,NA,NA,"POLYGON ((11.831155948837562 46.17786682883556, 11.831277318795514 46.17826924400694, 11.831505222742777 46.17823236363296, 11.831447387610893 46.17808249520422, 11.831509329875331 46.17807402948202, 11.831512431179533 46.178084590680015, 11.831673531358518 46.17805684658052, 11.83163111892847 46.17790605614243, 11.831447052334767 46.177930531299694, 11.831470018749457 46.17799674833475, 11.831429366519075 46.178002867124064, 11.831374548872304 46.177831373385146, 11.831155948837562 46.17786682883556))","hospital",NA,NA,NA
"Farmacia Centrale","Corso Ausugum","40",38051,"Borgo Valsugana","POINT (11.457761692291882 46.05392714700815)","pharmacy",NA,11.4577616922919,46.0539271470082
"Farmacia Rigoni","Strada Cerilio Dellantonio Bora","2",NA,"Moena","POINT (11.658775153094581 46.37678632258746)","pharmacy",NA,11.6587751530946,46.3767863225875
"Centro Sanitario Trentino","Via Alcide De Gasperi","75",38017,"Mezzolombardo","POINT (11.09383378955232 46.210817263677086)","doctors",NA,11.0938337895523,46.2108172636771
"Studio Cognola","Piazza Del Tridente","12",38121,"Trento","POINT (11.119329359711315 46.086797199398234)","doctors",NA,11.1193293597113,46.0867971993982
"Studio Di Radiologia Digitale Odontoiatrica","Piazza Del Tridente","4",38121,"Trento","POINT (11.118990647004097 46.08639226965593)","dentist",NA,11.1189906470041,46.0863922696559
